name,start_lat,start_lon
Total Rf Heliport,40.0708007812,-74.9336013794
Aero B Ranch Airport,38.704022,-101.473911
Cass Field,40.622202,-104.344002
Albert Guido Memorial Heliport,40.7417984009,-74.1371002197
Providence Hospital Heliport,42.3386993408,-122.861999512
Bronson Methodist Hospital Heliport,42.2869987488,-85.5813980103
Carey Lake Seaplane Base,47.4183006287,-92.8276977539
Troll Farm Airport,45.6115989685,-93.1974029541
Wabana Seaplane Base,47.418598175,-93.5187988281
Barnesville Municipal Airport,46.6651992798,-96.4412002563
Fairview Riverside Medical Center Heliport,44.966999054,-93.2373962402
Janssen Airport,46.7118988037,-96.3515014648
Merill L Harris Field,44.6433982849,-93.6996994019
Watonwan Memorial Hospital Heliport,43.9799995422,-94.616897583
Whiskey Lake Seaplane Base,45.973098,-95.576104
Hendershots Heliport,42.1332015991,-123.4509963989
Tofte Airport,47.588003,-90.8235
Anheuser/Busch Inc Heliport,38.5917015076,-90.2083969116
Missouri Baptist Hospital Heliport,38.6352996826,-90.4459991455
Fitzgibbon Hospital Heliport,39.1124992371,-93.1891021729
Lawlor-Justus Airport,39.6417007446,-94.8135986328
Worth Airport,39.9791984558,-94.8739013672
Hindman Airport,37.06119919,-93.09929657
Ivy Bend Airport,38.1930999756,-92.992401123
Urbana Area Medical Heliport,37.8417015076,-93.1669006348
Owensville Ambulance District Heliport,38.3555984497,-91.5024032593
Long Ranch Airport,42.0190010071,-121.7040023804
Eagle Lodge Airport,39.5499992371,-93.2501983643
Martin Heliport Area,30.356515,-88.507352
Beets Airport,31.202544,-89.749755
Monger Airport,45.7580986023,-111.0830001831
Mc Kenna Airport,45.7907981873,-111.125
Vansant Airport,40.4842987061,-75.0996017456
Philadelphia Seaplane Base,39.8590011597,-75.2995986938
Seamans Field,41.5894012451,-75.7561035156
Farmers Pride Airport,40.4429016113,-76.4415969849
Dakota Clinic Heliport,46.8936004639,-99.2922973633
Round Butte Heliport,44.6165008545,-121.2679977417
Bodmer Airport,48.6660995483,-101.8909988403
Raleigh East Airport,35.7976989746,-78.43699646
Stanley Memorial Hospital Heliport,35.3633003235,-80.1947021484
Flyers Airpark,35.2182006836,-78.7964019775
Edwards Airport,35.0708007812,-80.5663986206
Jiles Field,36.5093994141,-76.6641998291
Saint Luke's Hospital Heliport,35.2400016785,-82.2110977173
Sandy Run Acres Airport,34.2748985291,-78.1607971191
Willow Creek Airport,35.3697013855,-80.4400024414
Eagles Landing Airport,35.6869010925,-79.2188034058
East Oregon Cattle Co Airport,42.5035018921,-122.855003357
Meylor Field,36.2100982666,-79.8949966431
Elliott Farms Airport,48.6479988098,-97.2684020996
Hinkle Airport,48.7854995728,-97.6723022461
El-Co Airport,41.1444015503,-101.9270019531
Folkerts Airport,40.2916984558,-97.7225036621
Davis Ranch Airport,42.1875,-101.7890014648
Johnston Field,41.7033004761,-97.7444992065
Bates Airpark,41.3382987976,-96.0880966187
Bay Field,41.4333000183,-100.4840011597
Brosius Field,41.4016990662,-100.4789962769
Rome Service Airport,42.8339996338,-117.6289978027
Dog Leg Airport,40.1944007874,-97.5670013428
Lag's Landing Heliport,40.9553985596,-74.0709991455
Bound Brook Nr 1 Heliport,40.5644989014,-74.554901123
Bound Brook Nr 2 Heliport,40.5564994812,-74.5624008179
At&T Helistop,40.7168006897,-74.5495986938
Robert Wood Johnson Hospital Heliport,40.4956016541,-74.4516983032
Stallone Airport,39.6800994873,-75.2524032593
Halka Nurseries Airport,39.3664016724,-75.2683029175
Rca Sommerville Heliport,40.5736999512,-74.6677017212
High Meadow Farms Airport,40.8959007263,-74.9996032715
Marr Field,44.8540000916,-123.263999939
Ash Personal Heliport,39.715403,-74.131203
Greig Farm Airport,42.024318,-73.856292
Triple F Airpark,35.018333,-78.565833
Buie Field,34.793333,-79.193611
210 Investors Heliport,34.358889,-77.860556
Wilson Memorial Regional Medical Center Heliport,42.1133995056,-75.9585037231
Westfield Memorial Hospital Heliport,42.329498291,-79.570602417
Susquehanna Heliport,42.0973014832,-76.2247009277
Kennedy Airfield,42.1007995605,-79.0818023682
Norman Kurrass Contractor Heliport,40.8003997803,-72.9168014526
Sutton on Rogue Airport,42.4847984314,-122.8659973145
Mason Airway Airport,42.324798584,-74.9862976074
Hart Airport,43.0329017639,-74.1510009766
Thomson Industries Inc Heliport,40.842300415,-73.7012023926
Poughkeepsie Main Plant Heliport,41.6572827552,-73.935649395
Hueston Woods Lodge Heliport,39.5828018188,-84.7627029419
Bellville Dam Landing Strip,39.0834007263,-81.7776031494
Gilmer Airport,39.8302993774,-84.5096969604
Buckeye Executive Airport,39.9623184204,-82.5499801636
Burr Oak Lodge Heliport,39.5303001404,-82.0333023071
Jenkins Airport,41.3097991943,-83.1159973145
Hanel Field,45.5926017761,-121.5490036011
Crocker Airport,41.2822990417,-81.9489974976
Bender Airport,40.6213989258,-82.5337982178
Haar Airport,41.4542007446,-83.2651977539
Toussaint Airpark,41.5155982971,-83.3058013916
C.C.A. Heliport,39.2834014893,-84.2976989746
Richards Airport,41.4039001465,-82.1064987183
Miami Valley Heliport,40.0480995178,-83.2270965576
Weaver Airport,41.0353012085,-83.5690002441
Lutz Airport,40.9617004395,-83.595199585
Ferrell Airport,40.976398468,-83.6416015625
Valley Forge Bicentennial Heliport,40.1212005615,-75.40599823
Forest Field,40.8287010193,-83.5138015747
Dice's Personal Heliport,41.6006011963,-83.6896972656
Johns Landing Airport,39.898601532,-82.1102981567
Quail Lakes Heliport,39.4547996521,-83.7813034058
Transportation Research Center of Ohio Airport,40.3081016541,-83.5417022705
Nesta Airport,40.6328010559,-82.1768035889
Bayes Airport,40.3400993347,-83.2841033936
Brothers Aviation Airport,40.0322990417,-81.4651031494
Riverside Methodist Hospital Heliport,40.0312004089,-83.0348968506
Governor's Mansion Heliport,35.4944992065,-97.5211029053
Champion Ranch Airport,33.008611,-104.540278
Van Pak Airport,39.8321990967,-99.5687026978
Omh Heliport,35.4812011719,-97.4985961914
Pawnee Municipal Hospital Heliport,36.3334007263,-96.8003005981
Flying Eagle Estates Airport,36.7037010193,-95.8404998779
Vo-Tech Heliport,36.0918006897,-95.2169036865
Diamond C Ranch Airport,34.778301239,-96.9274978638
Community Hospital Lakeview Heliport,35.3109016418,-95.5907974243
Cimarron Strip,36.1847991943,-96.5503005981
Central Park Helistop,35.5334014893,-97.5002975464
Strang Airpark,35.544498,-94.486297
Lafferty Field,44.3151016235,-123.0250015259
Shoestring Aviation Airfield,39.7947998047,-76.6472015381
Shaniko Ranch Airport,45.0028991699,-120.7399978638
Reforestation Services Heliport,44.8681983948,-123.0230026245
Sky Lakes Medical Center Heliport,42.2540016174,-121.783996582
King's Airport,45.9337005615,-118.4479980469
Portland Adventist Medical Center Heliport,45.51399994,-122.5579987
Oregon Health Sciences University Emerg Heliport,45.4991281091,-122.685334682
Fishback Heliport,45.603889,-123.078611
Wooldridge Agstrip Airport,44.7326011658,-123.0559997559
Wallace Heliport,45.5582008362,-122.5350036621
Lance Airport,40.1873016357,-75.5902023315
Philadelphia Gliderport,40.331227,-75.248125
Carbondale-Clifford Airport,41.654202,-75.578796
Old Plains Airport,40.3945007324,-75.4412994385
Meadow Strip Ultralightport,40.4757003784,-75.3096008301
S & C 8th & Market Helistop,39.9533996582,-75.149597168
Solt Field,40.7801017761,-75.7163009644
State Police Area Six Heliport,40.0334014893,-75.2496032715
Keystone Airport,39.7728004456,-79.2110977173
Thomas Jefferson University Hospital Heliport,39.9490013123,-75.1585006714
Lankenau Hospital Heliport,39.9878997803,-75.2606964111
Seitz Field,40.0390014648,-79.7900009155
Phoenix Technologies Heliport,40.1181983948,-75.4012985229
Childrens Hospital Of Philadelphia Heliport,39.947222,-75.196111
Franklin Heliport,41.2197990417,-75.8809967041
Baratta Heliport,41.1250991821,-75.9933013916
Veit Airport,41.8180999756,-76.4126968384
Malinchak Private Airport,41.6250991821,-75.5329971313
Perin Heliport,40.8470001221,-75.2437973022
Zokaites Heliport,40.6090011597,-80.0329971313
Eagle Lodge-Lafayette Hill Heliport,40.076499939,-75.2552032471
J T Willie Airport,40.8087005615,-79.6697998047
Doylestown Heliport,40.3070983887,-75.1465988159
Haunstein Ultralightport,40.3167991638,-77.1247024536
Pheasant Run Heliport,40.7495002747,-75.2101974487
Reading Hospital Heliport,40.3306007385,-75.9502029419
Siepsers Eye Port Heliport,39.9709014893,-75.65599823
W S Lee & Sons Inc Heliport,40.4472007751,-78.4289016724
Manor Landing Airport,39.8130989075,-77.2949981689
St Mary Medical Center Heliport,40.2022018433,-74.9228973389
Hunt Airport,27.8878002167,-97.3544006348
Camp Bullis Heliport,29.6418991089,-98.5781021118
Lakeside State Airport,43.5831985474,-124.1800003052
Winifred Airport,47.5516014099,-109.3779983521
Robbins Farm Airport,41.7495002747,-76.7602005005
Beaman Airport,45.4749984741,-100.0350036621
Oakleaf Airport,43.5833015442,-96.950302124
Weelborg Airport,43.8065986633,-96.7089004517
Aero Heliport,30.4500999451,-97.6639022827
Hilltop Ranch Airport,29.6585998535,-98.137802124
Urschel Ranch Airport,35.9289016724,-100.3069992065
Rogers Airport,29.8729991913,-94.9896011353
Placid Heliport,32.7817993164,-96.7981033325
Charlton-Careflite Heliport,32.643699646,-96.8775024414
Buccaneer Shore Facility Heliport,28.9769001007,-95.3173980713
Ecko Field,40.2375984192,-76.7247009277
U of Texas Medical Branch Emergency Room Heliport,29.3122005463,-94.7782974243
Taylor Ranch Airport,31.6840991974,-94.9772033691
Delta Mechanical Inc Heliport,29.8521995544,-95.4085006714
Twin Acres Airport,32.3992004395,-96.3835983276
M-I Drilling Fluids Company Heliport,28.9239006042,-95.3419036865
JL Bar Ranch,30.5683,-100.445
Thorp Airport,32.5778999329,-101.9309997559
Tanner's Airport,28.5697002411,-96.629699707
Kalt Ranch Airport,28.154499054,-96.9768981934
Rocky Creek Ranch Airport,29.9169006348,-96.8003005981
Fisher Airport,41.4944992065,-79.8309020996
Flying G H Ranch Airport,30.245278,-97.082778
Shell Pelican Island Heliport,29.3227005005,-94.7869033813
Dresser Industries/Magcobar/ Heliport,29.323299408,-94.7829971313
Summit Medical Center Heliport,36.1777992249,-86.6082992554
Versailles Aerodrome,35.7299995422,-86.5378036499
Meadowlark Airport,36.163898468,-88.2052993774
Mehrhoff Field,35.1136016846,-89.5243988037
Foreman Field,36.457698822,-86.9459991455
Askey Field,35.4583015442,-86.9569015503
Performance Helicopters Heliport,35.2886009216,-89.6742019653
Hostetler Airport,40.6309013367,-77.8503036499
Baskin Airport,35.5344009399,-89.7350006104
Dollar General Heliport,36.3133010864,-86.698600769
Toy Box Airport,36.0194015503,-86.2881011963
Diamond E Ranch Heliport,29.7861003876,-96.043296814
One O'Connor Plaza-Tower Heliport,28.8010997772,-97.0057983398
Cig 816 Heliport,29.8612995148,-94.7009963989
Simaron Ranch Airport,30.1483001709,-95.9669036865
Ladue Ranch Heliport,33.0068016052,-96.5068969727
Wilford Hall Medical Center Heliport,29.397377,-98.624175
Goodlett Field,32.3788986206,-97.1782989502
Linvill Airport,39.8847999573,-75.4149017334
U of Texas Medical Branch Ewing Hall Heliport,29.3129997253,-94.7766036987
Dallas Rehabilitation Institute Heliport,32.8487014771,-96.8788986206
Toyota of Dallas Inc Heliport,32.9079017639,-96.8906021118
Houston Police Command Station Heliport,29.6566009521,-95.3201980591
Bar S Ranch Airport,30.1432991028,-96.8561019897
Bennetts Airport,32.6371002197,-96.4083023071
Horan Airport,34.1689987183,-101.6350021362
Flying H Ranch Airport,30.6595993042,-97.9111022949
Camp Bullis Als (Cals) Airport,29.74469948,-98.53720093
Beggs Ranch Airport,33.1750984192,-101.0240020752
Lantana Ranch Airport,38.7639007568,-119.0270004272
Community Medical Center Nap Heliport,41.4000015259,-75.6352996826
Hitex Private Airport,33.8418006897,-96.6697006226
Infomart Heliport,32.802898407,-96.8210983276
Canon Ranch Airport,30.7481994629,-101.9649963379
Wilsall Airport,46.0497016907,-110.6849975586
Springview Municipal Airport,42.8292007446,-99.7397994995
Trenton Municipal Airport,40.1875,-101.0250015259
Harrison Skyranch Airport,42.6958007812,-103.875
Bath Alum Airport,38.0526008606,-79.7288970947
Holly Point Airport,37.4053993225,-76.3882980347
Inova Alexandria Hospital Heliport,38.8226013184,-77.1041030884
Carson Heliport,40.3334007263,-75.2163009644
Crippen Creek Farm Airport,37.7629013062,-75.5718994141
Franwood Farms Inc. Airport,38.6908988953,-78.6295013428
Bluegrass Heliport,39.0638999939,-77.8890991211
Louise Obici Memorial Hospital Heliport,36.7528991699,-76.5858001709
Fire Station No. 14 Heliport,37.3549,-77.415497
Innsbrook Pavilion Heliport,37.6487998962,-77.5849990845
Southampton Memorial Hospital Heliport,36.6992988586,-76.9383010864
Campbell Field,37.4584999084,-75.8787994385
Jucapa Farms Airport,39.3721008301,-78.3044967651
Simpson Airport,39.0933990479,-80.0259017944
Fletcher Airport,41.4435997009,-80.1539001465
Baublitz Commercial Airport,39.8522987366,-76.4863967896
Clio Crop Care Airport,34.5614013672,-79.5381011963
Boeing Plant 2 Heliport,47.5368003845,-122.31300354
Quincy Valley Hospital Ems Heliport,47.231098175,-119.8679962158
Odessa Memorial Hospital Ems Heliport,47.3306007385,-118.6809997559
River Bend Airport,48.4696006775,-117.2900009155
Piper Canyon Airport,45.8027992249,-120.9560012817
Mid-Valley Hospital Ems Heliport,48.7291984558,-119.5459976196
Puget Sound Plaza Heliport,47.6082000732,-122.3320007324
Albritton Airport,47.2155990601,-122.1330032349
Pete's Water Landing Seaplane Base,40.6994018555,-79.6188964844
Mason General Hospital Heliport,47.2248001099,-123.1119995117
Naval Submarine Base Bangor Heliport,47.7036031255,-122.714806795
All-State Equipment Co. Heliport,42.9625015259,-87.9750976562
Black Otter Airport,44.3293991089,-88.6235961914
Flying Dollar Ranch Airport,44.2874984741,-87.7958984375
Buchholz Farm Airport,44.2854995728,-87.9868011475
Faken Airport,42.9785995483,-88.134803772
Tamarack Airport,42.8283004761,-88.5745010376
Kitty Hawk Estates Airport,45.1040992737,-89.0167999268
Fletcher Airport,42.693901062,-88.3793029785
Flying Acres Airport,41.0731010437,-80.0702972412
Carlson Airport,46.6208000183,-92.0819015503
Courtney Plummer Airport,44.1068992615,-88.6839981079
Voyager Village Airstrip,45.9665985107,-92.1460037231
Ozaukee Airport,43.4213981628,-87.888999939
Rag Wing Airport,45.0839996338,-89.029800415
Lodi Lakeland Airport,43.3333015442,-89.5210037231
Medos Lake Delton Seaplane Base,43.6068992615,-89.7776031494
Coloma Municipal Airport,44.0600013733,-89.5668029785
Antique Aerodrome,44.367639,-88.158678
Sheridan Memorial Hospital Heliport,44.807778,-106.975278
Wyeth-Ayerst Nr Heliport,40.1586990356,-75.4634017944
Sack-O-Grande Acroport Airport,29.9127006531,-95.8265991211
Chimera Aerodrome,32.355752,-97.039822
Dobbs Ranch Airport,29.0979995728,-96.9552993774
The Landing Airport,31.8355998993,-96.952796936
Beaver Creek Airport,33.6542626352,-96.7763596773
Macy Ranch Airport,33.1034011841,-101.4649963379
Mc Keon Aviation Airport,33.7342987061,-96.626701355
Kitten Farm Private Airport,33.3501014709,-101.641998291
Sudan Airport,34.0531005859,-102.5220031738
Reeder Airport,32.947101593,-95.9586029053
Kitner Airport,40.4128990173,-77.2414016724
Goodson Honda Heliport,30.0,-95.4257965088
Rancho Verde Airport,30.2833003998,-96.4475021362
Bowstring Airport,47.5499000549,-93.866897583
East Gull Lake Airport,46.3833007812,-94.3619003296
Sky Harbor Seaplane Base,47.4595985413,-92.476600647
Barron Municipal Airport,45.4075012207,-91.8342971802
Kodiak /Lilly Lake/ Seaplane Base,57.8026008606,-152.3829956055
Kvichak /Diamond J/ Airport,58.962600708,-156.9320068359
Levelock Airport,59.1281013489,-156.85899353
Lawing Airport,60.4110984802,-149.3699951172
Nichols Airport,41.7792015076,-79.5983963013
Dixie US Forest Service Airport,45.520699,-115.517997
Bold Airport,61.3413009644,-148.9989929199
Saginaw Seaplane Base,56.8862991333,-134.158004761
Adin Airport,41.186000824,-120.952003479
Seldovia Seaplane Base,59.4341011047,-151.707992554
Fort Bidwell Airport,41.8763008118,-120.1470031738
Sitka Seaplane Base,57.0521011353,-135.345993042
Taku Harbor Seaplane Base,58.0690994263,-134.01499939
Costin Airport,29.7584991455,-85.289100647
Alsek River Airport,59.1991802403,-138.447293043
Memmi Airport,40.1689987183,-77.9925003052
Tuntutuliak Airport,60.3353004456,-162.667007446
Twin Hills Airport,59.0755996704,-160.2729949951
Harlequin Lake Airport,59.4143981934,-139.0249938965
Situk Airport,59.5516014099,-139.5090026855
Tanis Mesa Airport,59.2480010986,-138.5039978027
Dangerous River Airport,59.4127998352,-139.1940002441
Yankee Creek 2 Airport,63.0018997192,-156.367004395
Chignik Lake Airport,56.2550010681,-158.774993896
Gunsight Mountain Airport,61.8995018005,-147.3229980469
Shump Airport,62.51015,-149.926717
Drillmore Acres Airport,40.1282997131,-77.631401062
West Beaver Seaplane Base,61.584961,-149.846531
Horseshoe Lake Seaplane Base,61.571481,-149.924111
Central Pad Heliport,70.171228,-146.258517
Viking Heliport,61.224775,-149.839094
Shelby Strip,61.507811,-149.078481
Sixmile Lake Airport,61.289722,-149.806111
Saddleback Island Heliport,61.521575,-149.927139
Alaska Heliworx Heliport,61.594722,-149.153889
Busch Creek Airport,62.477502,-147.774722
Misty Lake Seaplane Base,61.550739,-149.676131
Vassar Hospital Heliport,41.7000999451,-73.9496002197
Shriver Airport,41.6166992188,-79.6830978394
Dove Island Lodge Seaplane Base,57.0408333,-135.2955556
Toolik Heliport,68.628168,-149.589
Delta Daves Airport,64.132858,-145.804494
Pioneer Heliport,70.4141,-150.018592
Trio Estates Airport,61.648189,-149.870831
Gus Landing,61.60415,-149.770119
35 Mile Lodge Heliport,59.4375556,-136.2293611
Nikaitchuq Operations Center Heliport,70.4824806,-149.8532333
Barlett Regional Hospital Heliport,58.328803,-134.460083
Point Thomson Sea Ice Airstrip,70.181144,-146.35035
Paul Personal Use Airport,41.7195014954,-79.6778030396
Spy Island Drill-Site Heliport,70.55625,-149.9105278
Timber Trails Airport,64.769444,-147.329444
Walby Lake Seaplane Base,61.616419,-149.221031
Adado Airport,6.095802,46.6375
Rothera Point Airport,-67.5669411575,-68.1269931793
RAF Calveley,53.113333,-2.603889
RNAS/RAF Calshot,50.8199131549,-1.3067722321
Atkamba Airport,-6.0655555556,141.095277778
Abau Airport,-10.1956,148.7389
Camí Heliport,42.546257,1.51916
Frederick Airpark,41.3708992004,-79.3416976929
Andorra la Vella Heliport,42.511174,1.533551
Andakombe Airport,-7.1372222222,145.744722222
RAF Castletown,58.5847198881,-3.3481693268
El Daein Airport,11.4023,26.1186
Batha Airport,24.214693,51.44989
Burj al Arab Resort Helipad,25.141327,55.185496
Dubai Skydive,25.0898742332,55.1366257668
Sheikh Sultan Bin Khalifa bin Zayed Al Nahyan palace Heliport Complex,25.1225658976,55.1746809483
Kempinski Emirates Palace Twin Heliport,24.4622678828,54.3205904961
Jebel Ali Seaplane Base,24.988967,55.023796
Mc Crory Stores Heliport,39.9814987183,-76.6714019775
Al Ghuwaifat Border Post helipad,24.120421,51.600595
Al Ghuwaifat Customs Post helipad,24.128339,51.616767
Delma Hospital Helipad,24.4756,52.3101
Schumacher Heliport,25.221807,55.138836
Palm Jumeirah Heliport,25.127297,55.114092
Waldorf Astoria Dubai Palm Jumeirah Helipad,25.133372,55.150379
Oceana Palm Jumeirah Helipad,25.110083,55.135169
Ghantoot Racing & Polo Club Helipad,24.86824,54.905556
Golden Tulip Al Jazira Helipad,24.858628,54.894996
Ghantoot Hotel 1 Helipad,24.866038,54.88826
Marian Heliport,40.9894981384,-75.7512969971
Ghantoot Hotel 2 Helipad,24.865417,54.882283
Ghantoot Hotel 3 Helipad,24.894949,54.860294
Dubai Festival City Helipad,25.220765,55.349227
Yas Marina Heliport,24.468368,54.609561
Yas Marina Circuit Heliport,24.469136,54.603443
Al Mushrif Palace Helipad,24.452066,54.377368
Al Forsan Helipad,24.406998,54.543507
Yasat Higher Airport,24.221075,52.006719
Sila Hospitals Helipad,24.068301,51.762519
Erase Me 21,0.0,-0.6000000000000001
Carsonville Airport,40.490398407,-76.7666015625
F*#$ Off @james_Andrew!!!,0.6000000000000001,0.7000000000000001
Adareil Airport,10.0536111111,32.9594444444
Algeciras Heliport,36.12888,-5.441118
Aseki Airport,-7.3508048555,146.19386673
Ajrestan Airport,33.4852981567,67.1440963745
Dehdadi Airport,36.6460990906,67.0323028564
Charikar Airport,35.1431007385,69.3143997192
Dostmohammadkhan Kalay Airport,31.0450000763,64.1541976929
F@# Off Spammer!,0.7000000000000001,0.7000000000000001
Helmand Airport,30.3300991058,61.896900177
Old Orchard Airport,41.0083999634,-78.5608978271
Khvej Ghar North Airport,37.0710983276,69.4950027466
Khvej Ghar South Airport,37.0611991882,69.4882965088
Kotubkhel Airport,34.1929016113,69.1356964111
Nayak Airport,34.6870994568,66.8932037354
Orūzgān Airport,32.9029998779,66.630897522
Salerno Landing Zone Airport,33.3638000488,69.9561004639
Sarhawdza Landing Zone Airport,33.1561012268,68.8197021484
Sheber Too Landing Zone Airport,34.7789001465,67.4867019653
Tapa Airport,32.745098114,62.5987014771
Qara Tepa Heliport,37.4233016968,69.4302978516
Used Parts Heliport,40.8792991638,-75.1927032471
Kondavattavana Tank Seaplane Base,7.284,81.644
Afore Airstrip,-9.1422222222,148.390833333
Afutara Aerodrome,-9.1913888889,160.948611111
Ulawa Airport,-9.8605435826,161.979546547
Uru Harbour Airport,-8.87333,161.011002
Barakoma Airport,-7.912779808,156.7059936523
Geva Airport,-7.5758299828,156.5970001221
Angoram Airport,-4.0558333333,144.073888889
Auki Airport,-8.7025699615,160.682006836
Bellona/Anua Airport,-11.3022222222,159.798333333
Herbst Heliport,39.9495010376,-76.5532989502
Choiseul Bay Airport,-6.711944,156.396111
Ballalae Airport,-6.990745,155.886656
Fera/Maringe Airport,-8.1075,159.576996
Honiara International Airport,-9.4280004501,160.0549926758
Babanakira Airport,-9.7475004196,159.8390045166
Avu Avu Airport,-9.8683333333,160.410555556
Ngorangora Airport,-10.4497003555,161.897994995
Santa Cruz/Graciosa Bay/Luova Airport,-10.7202997208,165.7949981689
Munda Airport,-8.3279695511,157.2630004883
Nusatupe Airport,-8.0977802277,156.863998413
Harman Airport,40.5223007202,-76.8454971313
Mono Airport,-7.4169402122,155.5650024414
Parasi Airport,-9.6416702271,161.4250030518
Ontong Java Atoll Airstrip,-5.515,159.527777778
Rennell/Tingoa Airport,-11.5339002609,160.06300354
Sege Airport,-8.5788898468,157.8760070801
Santa Ana Airport,-10.847994,162.454108
Marau Airport,-9.8616695404,160.824996948
Suavanao Airport,-7.585559845,158.7310028076
Yandina Airport,-9.092816,159.21841
El Paraíso Airport,8.128611,-73.584722
Galion Community Hospital Heliport,40.7305984497,-82.8015975952
Bayfront Garage Heliport,42.132598877,-80.0861968994
Kagua Airport,-6.3963888889,143.853611111
Kaghau Airport,-7.3305,157.585
Kukudu Airport,-8.0262,156.94783
Kwailabesi Airport,-8.360508,160.775127
Wanigela Airport,-9.3375,149.155555556
Nana Airport,-10.6758,162.2049
Ringi Cove Airport,-8.1263904572,157.1430053711
Ramata Airport,-8.1680603027,157.6430053711
Tulaghi Heliport,-9.108,160.149166667
Argyle Downs Airport,-16.514,128.9245
Delaware Valley Medical Center Heliport,40.1828994751,-74.8678970337
Hongyuan Airport,32.53154,102.35224
Amchitka Army Airfield,51.3777777778,179.259166667
Ambatolhy Airport,-20.0158333333,45.535
Aiome Airport,-5.145699978,144.7307003
Aiambak Airport,-7.3427777778,141.2675
Ailinglaplap Airok Airport,7.279422,168.8257
Jakes Bar Airport,61.2187004089,-142.8899993896
Anchor River Airpark,59.7966995239,-151.8630065918
Alaska Airpark,60.528983,-150.625133
Bear Creek 1 Airport,65.5399017334,-161.06199646
Sonoma Valley Airport,38.2234992981,-122.4499969482
Skelton Airport,61.9370002747,-147.169006348
Breeden Airport,60.54105,-150.599217
Denali Airport,63.6450996399,-148.7980041504
Dog Fish Bay Airport,59.2410011292,-151.8769989014
Thomas Strip,61.7899017334,-150.1060028076
Wingsong Estates Airport,64.0495986938,-145.5019989014
Butte Municipal Airport,61.5303001404,-149.0180053711
AK-10 Airstrip,61.71721,-150.108992
Point Mcintyre Airport,70.4017028809,-148.6820068359
Flying Crown Airport,61.1066017151,-149.8639984131
Selma Airport,36.5816001892,-119.6579971313
Chena Hot Springs Airport,65.0518035889,-146.04699707
Turinsky Airstrip,61.3512992859,-150.089004517
Sunset Strip,61.52339935,-149.7149963
Glacierview Strip,59.7635993958,-151.2230072021
Camp Point Airport,59.8284988403,-153.0809936523
Carl's Landing Airport,62.1739006042,-150.0639953613
CD-3 Airstrip,70.420622,-150.886667
Nushagak Airport,59.132598877,-157.7769927979
Lakloey Air Park,64.8217010498,-147.5220031738
Hilltop Airport,61.41820145,-149.4389954
Shingletown Airport,40.5220985413,-121.818000793
Piper Landing Airport,61.6175003052,-149.6150054932
Solomon State Field,64.5605,-164.4457
Valley Flying Crown Airport,61.6426010132,-149.6239929199
Chena Marina Airport,64.8140029907,-147.9190063477
Reids Landing Airport,61.6125984192,-149.8520050049
Strawberry Point Airport,60.391153,-146.097464
Swift Creek Airport,61.4112014771,-143.0010070801
Oooguruk Island Heliport,70.495422,-150.253467
Herendeen Bay Airport,55.801399231,-160.899002075
Kashwitna Lake Seaplane Base,61.8353004456,-150.080001831
Sonoma Skypark Airport,38.2577018738,-122.4339981079
Buffalo Row Heliport,64.0389022827,-145.738998413
Point Mac Airport,61.436000824,-150.1219940186
Point Mackenzie Heliport,61.2495002747,-150.035995483
Providence Hospital Heliport,61.188999176,-149.822006226
South Gasline Airport,60.6972007751,-150.1799926758
Nixon Fork Mine Airport,63.2291984558,-154.759994507
Greg'n Sage Airport,64.5438995361,-146.8439941406
Valley Hospital - Palmer Heliport,61.600899,-149.106009
Jacobsen Lake Seaplane Base,61.5791015625,-149.539001465
Talkeetna Village Strip,62.318901062,-150.1159973145
Lincoln Municipal Airport,38.4039001465,-93.3330001831
Lost River 2 Airport,65.456199646,-167.175003052
Abi Airport,61.6287994385,-149.0429992676
Shawn Field,61.5857009888,-149.56300354
"Valley Hospital, Wasilla Heliport",61.585202,-149.425004
Taylor Airport,65.6792984009,-164.798995972
Encelewski Lake Seaplane Base,60.2555999756,-151.3029937744
Sky Ranch At Pioneer Peak Airport,61.554599762,-149.1439971924
Wilder/Natwick LLC Airport,60.198600769,-154.324996948
Moen's Ranch Airport,64.8889007568,-147.5359954834
Downwind Landing Airport,61.582298,-148.996994
The Red River Airport,31.9906997681,-93.3074035645
Stro's Airport,61.6571006775,-149.3260040283
Moose Run Airstrip,60.489200592,-150.8020019531
Tikchik Lodge Seaplane Base,59.9631996155,-158.477005005
Long Lake Seaplane Base,61.7257003784,-150.091003418
Fairview West Airport,61.5400009155,-149.5489959717
King Ranch Airport,61.7956008911,-148.3549957275
Fort Jensen Airport,57.8851013184,-157.0970001221
Stephan Lake Lodge Airport,62.6996002197,-148.9069976807
Naukati Bay Seaplane Base,55.849602,-133.227994
Pat-Mar Strip,61.5886001587,-149.1430053711
Plainville Airpark,39.1944999695,-99.3033981323
Taylor Mountain Airport,60.8678016663,-157.391998291
Green's Strip,61.5979003906,-149.3509979248
Hunter Creek Airport,61.4631004333,-148.8040008545
Skid Marks Airport,61.7386016846,-150.0729980469
Minuteman Strip,61.7202987671,-150.0540008545
Long Lake Airport,61.7293014526,-150.0980072021
Lonely Air Station,70.91069794,-153.2420044
Jewell Airport,61.70470047,-150.6009979248
McGahan Industrial Airpark,60.7252998352,-151.302001953
Kodiak Emergency/Spruce Cape Heliport,57.8078994751,-152.3540039062
Meadow Creek Usfs Airport,47.8457984924,-113.408996582
Candle 2 Airport,65.907699585,-161.925994873
East Alsek River Airport,59.1260986328,-138.4069976807
All West Airport,63.9413986206,-145.4219970703
Jolly Field,61.59355,-149.5665
Christiansen Lake Seaplane Base,62.313414,-150.06935
American Creek Airport,65.1046,-151.176
Amook Bay Seaplane Base,57.4715003967,-153.815002441
Campbell BLM Heliport,61.1561012268,-149.792007446
Gannon's Landing Airport,61.6273002625,-149.6089935303
Scooter's Landing Strip,60.5293998718,-150.8309936523
Lawrence Airport,35.2944984436,-98.6364974976
Stockton Municipal Airport,39.3772010803,-99.2950973511
Birchwater Airport,61.482333,-149.763986
Kramer Airport,61.573539,-149.91135
Team Levine Heliport,61.5149002075,-149.929000854
Eagle Nest Airport,61.6046981812,-149.0399932861
Black Spruce Airport,61.6570014954,-149.8370056152
Shirley Lake Airport,61.7447013855,-150.1150054932
Elmendorf Hospital Heliport,61.2397003174,-149.74899292
Martin Airport,61.63800049,-149.029007
Grouse Ridge Airport,61.6552009583,-149.2729949951
Alascom/Coastal Lena Point Heliport,58.3908004761,-134.776992798
Nez Perce Municipal Airport,46.2374000549,-116.2429962158
Twin Lake Airport,61.5698013306,-149.779006958
Bartletts Airport,58.2162017822,-157.352005005
Boswell Bay Airport,60.4230995178,-146.145996094
Buck Creek Airport,65.6387023926,-167.4859924316
Grand Home Airport,61.446667,-149.761111
Zakuoma Airport,10.8902777778,19.8172222222
Lapraka Airfield,41.3333015442,19.7912998199
Aeroporti i Korroticës së Ulët,42.6051923,20.9096986
Aeroporti i Mifoit,40.6061798,19.4262538
Gjirokastër Airport,40.087889,20.151917
Lenling Airport,45.4249992371,-100.891998291
Charlie Wilkes Airport,33.7444000244,-87.7863998413
Bedsole Farm Airport,31.5585002899,-87.5333023071
Rainey Field,33.150100708,-87.4417037964
Strickland/Smalley Field,35.853889,-87.723889
Pleasant View Farm Airport,30.4627,-87.525002
Sehoy Airport,32.2201004028,-85.4680023193
Drummond Heliport,33.5158996582,-87.2566986084
EAMC-Lanier Heliport,32.829531,-85.168711
Perdido Winds Airpark,30.4244003296,-87.5353012085
Cloudmont Airpark,34.5334014893,-85.5902023315
Lodi Airport,42.9721984863,-96.9802017212
Frerichs Airport,34.6511993408,-86.4169006348
Baptist Medical Center Heliport,32.3274993896,-86.2766036987
Kershaw Airport,32.3585014343,-86.125
MeadWestvaco Heliport,32.1724014282,-85.0288009644
Bryan W. Whitfield Memorial Hospital Heliport,32.5057,-87.8363
Styron Airport,30.4029998779,-87.7241973877
Turkey Creek Airport,33.7267990112,-86.7236022949
Lazy Eight Airpark Llc Airport,33.2340011597,-86.5130004883
Parker Field,33.6762008667,-86.8675003052
Medical West Heliport,33.37155,-86.991
Prairie Lakes West Heliport,44.9110984802,-97.1194992065
Southeast Alabama Medical Center Heliport,31.2180995941,-85.3672027588
Lakeside Heliport,33.5121002197,-86.6774978638
Eliza Coffee Memorial Hospital Heliport,34.7939987183,-87.6834030151
Drummond Coal Company Heliport,33.5522994995,-86.7508010864
Rotor Wing Inc Heliport,33.6776,-86.8703
Spratling Field,32.242401123,-85.6010971069
Bryant Culberson Heliport,33.2060012817,-87.5278015137
Headquarters Airport,34.1057014465,-85.5658035278
Huntsville Hospital Heliport,34.7373008728,-86.5742034912
New Horizon Airport,34.1292991638,-86.6333007812
Bledsoe Ranch Airport,45.2694015503,-103.2170028687
Mizell Memorial Hospital Heliport,31.2932,-86.254097
Vaughan Hospital Heliport,32.4067993164,-87.0541992188
Flying M Ranch Airport,34.3226013184,-85.643699646
Sturdy Oak Farm Airport,31.0251998901,-87.5858001709
Elam's Landing Airport,34.446999,-87.386101
Mc Ginnis Airport,30.619600296,-87.7043991089
The Huntsville Hospital Heliport,34.7209014893,-86.5805969238
Benedick Airport,31.555028,-85.977278
University of Alabama Hospital Heliport,33.5059013367,-86.8028030396
Shelby Medical Center Heliport,33.2522010803,-86.8122024536
Brookview Manor Heliport,44.3081016541,-96.7647018433
Bonham Airport,33.5432014465,-86.9858016968
Freedom Field,31.1159992218,-85.62550354
The Health Care Authority of the City of Anniston Heliport,33.656068,-85.8244
Henley Ranch Airport,32.9085006714,-88.3333969116
Cullman Medical Center Heliport,34.1722984314,-86.8435974121
Trinty Medical Center Heliport,33.5175018311,-86.7497024536
Shoals Creek Seaplane Base,34.9025993347,-87.5871963501
Lemoyne Heliport,30.9717998505,-88.0263977051
Southwest Alabama Medical Center Heliport,31.9307003021,-87.7375030518
Carraway Medical Center Heliport,33.535900116,-86.8114013672
The Fort Heliport,43.8064002991,-103.6370010376
Baptist Medical Center-Princeton Heliport,33.4976005554,-86.8463973999
Flying C's Plantation Airport,32.4160995483,-85.2992019653
Usa Medical Center Heliport,30.71159935,-88.1078033447
Humana Hospital Shoals Heliport,34.7462005615,-87.676399231
Bird Nest Airport,33.8633003235,-87.8452987671
Shields Airport,30.4419002533,-87.4638977051
Jones Light Aviation Airport,32.500099,-85.083298
Lower Delta Seaplane Base,30.675476,-87.959871
Flowers Hospital Heliport,31.2376995087,-85.4562988281
Dugger's Field,33.8386993408,-86.2114028931
Oasis Ranch Airport,44.288898468,-101.8259963989
Belforest Airport,30.616899,-87.858299
Striplin Airfield,31.0830001831,-85.6835021973
Walker Regional Medical Center Heliport,33.8433990479,-87.2339019775
St Vincents East Heliport,33.596972,-86.667808
Alabama Power Headquarters Heliport,33.5195999146,-86.8135986328
Exxon Heliport,30.5308,-88.110001
Willis Airport,33.8512,-85.663
Vaughn Private Airport,30.5084991455,-87.4916000366
ABC 33/40 Heliport,33.352729,-86.787855
Willow Point Airport,32.8036994934,-85.9804992676
Porch Ranch Airport,43.5243988037,-101.7340011597
Palmer Field,34.695400238,-86.7861022949
Sharpe Field,32.4919013977,-85.7755966187
Grimes Field,30.7644004822,-88.3058013916
Gulf State Park Seaplane Base,30.263299942,-87.6369018555
Mayfield (Private) Airport,32.8487014771,-86.8700027466
Smart Road Airport,31.7406005859,-86.0070037842
Klumpp Airport,30.5268993378,-87.8542022705
Bartlett Ranch Airport,32.2695999146,-86.0988006592
Bellefonte Nuclear Plant Heliport,34.7120018005,-85.9238967896
Wallace Field,30.5501995087,-87.5832977295
Red & White Flying Service Airport,43.119301,-121.044997
Juhnke Airport,43.7827987671,-100.2929992676
Providence Hospital Heliport,30.6793994904,-88.1999969482
Community Hospital Heliport,32.5340003967,-85.9113006592
Pecan Ponds Farm Airport,30.5585002899,-87.6041030884
Towers Heliport,33.4743003845,-86.3249969482
Lawrence County Hospital Heliport,34.484081,-87.284882
Dale Medical Center Heliport,31.4515991211,-85.6318969727
Ban Farm Airport,30.4265995026,-87.4708023071
Sommerset Strip,32.7187004089,-85.366897583
Selma Medical Center Heliport,32.4290008545,-87.0567016602
The Children's Hospital Heliport,33.5042991638,-86.8052978516
Crazy Horse Heliport,43.8250007629,-103.6360015869
Hawk Field,33.3073005676,-86.4036026001
Big Sky Airport,34.8856010437,-86.7099990845
Evans Field,30.8127002716,-88.3771972656
Mc Intosh Community Heliport,31.2735004425,-88.0124969482
Bon Secour Seaplane Base,30.2982997894,-87.7407989502
Williamson Farm Airport,30.6446990967,-87.6694030762
Dch Regional Medical Center Heliport,33.2061004639,-87.5263977051
Blast Off Heliport,30.8397006989,-87.7727966309
Alitak Seaplane Base,56.8995018005,-154.248001099
Kapan Airport,39.202999115,46.4550018311
Twin City Airpark,37.3138999939,-89.9972991943
Shinuyar Airport,39.4509887695,46.347240448
Hoktember Highway Strip,40.0809774791,43.8822698593
Berd Airport,40.925405606300004,45.4614043236
Gavar Airport,40.3712011539,45.0973320007
Mets Mazrik Airstrip,40.1998548891,45.7771110535
Meghri Airport,38.9115725716,46.198925972
Mar de Cortés International Airport,31.351621,-113.305864
Alto Molocue Airport,-15.6102777778,37.6813888889
Ama Airport,-4.1011111111,141.67
Amanab Airport,-3.586,141.214333333
Kittyhawk Airport,33.126202,-96.683601
Ambatomainty Airport,-17.6866666667,45.6238888889
Av Ranch Airport,32.8166999817,-110.3170013428
Angaur Airstrip,6.9068293572,134.145385742
Anuha Island Resort Airport,-9.0013888889,160.225
Nauru International Airport,-0.547458,166.919006
Angus Downs Airport,-25.0325,132.2748
Saurimo North Airport,-9.433429718,20.3118000031
Nankova Airport,-16.3963699341,18.9787635803
Rito Airport,-16.6893920898,19.0837669373
Coemba Airport,-12.1437044144,18.0853633881
Mainland Regional Health Care System Heliport,29.3932991028,-94.9851989746
Andulo Airport,-11.4722995758,16.710899353
Caluquembe,-13.775546,14.694916
Cuvelai Airport,-15.668575,15.805654
Cuangar Airport,-17.597122,18.63437
Cuangar Old Airport,-17.599985,18.623552
Savate Airport,-16.880647,18.002593
Mucusso Airport,-18.020826,21.437053
Jamba Airport,-17.454765,22.607245
Luiana Airport,-17.380791,23.002339
Coutada Airport,-17.017654,21.301774
Buddy Harmel Airport,34.2195014954,-101.9800033569
Rivungo Airport,-15.793551,21.380704
Mavinga Airport,-15.789222,20.368971
Ninda Airport,-14.80893,21.376961
Luena Airport,-12.740271,20.736829
Lucusse Airport,-12.521974,20.805726
Cassamba Airport,-13.139351,20.300824
Calunda Airport,-12.126335,23.478615
Lóvua Airport,-11.556065,23.553667
Luacano Airport,-11.209962,21.648705
Lumeje Airport,-11.564598,20.785903
Smith Farms Airport,34.2167015076,-101.9250030518
Chipato Airport,-10.701382,22.160291
Nova Chaves Airport,-10.598408,21.315093
Camacupa Airport,-12.021878,17.453693
Luando Airport,-11.62444,18.46969
Quirima Airport,-10.902645,18.060368
Dala Airport,-11.040653,20.208268
Cazaje Airport,-11.063437,20.695914
Longa Airport,-14.610741,18.487945
Cuchi Airport,-14.64987,16.885391
Mutumbo Airport,-13.179982,17.394938
Tate Ranch Airport,30.3043003082,-102.1380004883
Miguel Airport,-15.704318,17.452439
Namacunde Airport,-17.302638,15.850786
Calai Airport,-17.878868,19.782761999999998
Chitado Airport,-17.320733,13.923845
Alto Dondo Airport,-9.675516,14.464999
Mussende Airport,-10.520306,15.99677
Capenda Camulemba Airport,-9.415833,18.434794
Xassengue Airport,-10.461305,18.535527
Balombo Airport,-12.357134,14.77923
Cuima Airport,-13.458467,15.833762
Erco Field,32.4978981018,-96.2705001831
Cubati Airport,-15.333917,16.851872
Capelongo Airport,-14.457297,16.296202
Chitembo Airport,-13.509385,16.74928
Cuito Cuanavale South Airport,-15.711983,18.651003
Mussuma Airport,-14.204202,21.909971
Mumbué Airport,-13.900039,17.300036
Cubango River Airport,-13.333366,16.414531
Chinhama Airport,-13.105437,16.42432
Cangamba Airport,-13.7106,19.861099
Dirico Airport,-17.981924057,20.7680606842
Metro Heli-Pad Heliport,29.6147003174,-95.3548965454
Lumbala Airport,-12.6398773193,22.5868206024
Jamba Airport,-14.6981925964,16.070148468
Capanda Airport,-9.769370079,15.4553194046
Ndalatandos Airport,-9.275188446,14.9772424698
Aroa Airport,-9.0254,146.8
Annanberg Airport,-4.9041666667,144.635833333
Abou-Deïa Airport,11.4773,19.2874
Asapa Airport,-8.9791666667,148.103611111
April River Airport,-4.6766666667,142.540138889
Novolazarevskaya Station,-70.8460998535,11.8472003937
Pine Heliport,40.6556015015,-80.0509033203
Arco Ingleside Shorebase Heliport,27.8477993011,-97.2229995728
Troll Airfield,-71.9555969238,2.4555599689
González Videla Antarctic Base,-64.824,-62.857
Base Cientifica Ellsworth,-77.650008,-41.0333
Girdwood Airport,60.966099,-149.126007
Cullen Airport,-52.8851013184,-68.4122009277
Los Cerros Airport,-54.3441009521,-67.832901001
Rio Bellavista Airport,-53.9827003479,-68.5235977173
Merlo Airport,-32.3582000732,-65.0174026489
Bragado Airport,-35.144,-60.4803
[Duplicate] Brigadier Hector Ruiz Airport,-37.4333000183,-61.8833007812
Alta Vista Ranch Airport,30.1481990814,-103.8929977417
Caleta Olivia Airport,-46.4318008423,-67.5186004639
Aeroclub Chaco Airport,-27.6311,-59.1797
Charata Airport,-27.2164,-61.2103
General Villegas Airport,-35.0,-63.0
Los Menucos Airport,-40.817699,-68.074699
Aerofumigaciones Don Alejandro Airport,-33.3053,-60.6539
Agro Servicio Yoris Airport,-26.583055,-64.529724
Agroaire Airport,-27.4978,-61.6586
Saenz Peña Airport,-26.8157997131,-60.448299408
(Old) Antoine De Saint Exupery Airport,-40.7401008606,-64.9804992676
Womack Plantation Airport,33.8487014771,-95.4072036743
Valcheta Airport,-40.7000007629,-66.1500015259
Villa Mercedes Airport,-33.640858,-65.420074
13 De Diciembre Airport,-45.9033,-67.5564
Abel Monteverde Heliport,-32.9208,-62.4663
Acindar Airport,-33.2647,-60.2842
Aeroboero Airport,-30.7286,-62.0078
Bahia Blanca Aeroclub Airport,-38.6722,-62.3522
Balcarce Aeroclub Airport,-37.9156,-58.3442
Cipoletti Aeroclub Airport,-38.8931007385,-67.9886016846
Olavarria Aeroclub Airport,-36.9644012451,-60.2757987976
Houston Oil & Minerals Port Bolivar Nr 2 Heliport,29.3910999298,-94.7640991211
Rauch Airport,-36.7717,-59.0575
Tandil Aeroclub Airport,-37.2655982971,-59.0932998657
Aerotec Airport,-33.206943512,-68.492225647
Alagro Fumigaciones Airport,-32.8878,-60.8436
San Andres De Giles Airport,-34.4703,-59.4247
Alejandro Roca Airport,-33.3488998413,-63.7299995422
Alfredo Sanchez Airport,-34.8011,-61.865
Algarrobo/La Reforma Airport,-38.7306,-63.2869
Allen Airport,-38.9580993652,-67.8035964966
Alta Gracia Airport,-31.6513996124,-64.3938980103
Robertson Ranch Airport,29.6930007935,-101.1620025635
Alumine Airport,-38.9502983093,-71.0492019653
Alvear Aeroparque Airport,-33.0467,-60.5969
Alvear Airport,-29.064722,-56.541111
Ameghino Airport,-34.8458,-62.481700000000004
America Airport,-35.5017,-62.99
Añatuya Airport,-28.4797000885,-62.8457984924
Andacollo Airport,-37.2033348083,-70.6966629028
Anibal Brizi Airport,-31.4042,-60.8992
Arelauquen Heliport,-41.1612,-71.3659
Aries Heliport,-52.6831,-68.0419
Christus Spohn Hospital Memorial Heliport,27.779800415,-97.4141998291
Arrecifes Aeroclub Airport,-34.0833,-60.0333
Arribeños Airport,-34.2228,-61.3858
Arroyito/Arcor Airport,-31.4221992493,-63.0041999817
Austral Heliport,-52.8936,-68.3553
Autodromo Ciudad De Bs. As. Heliport,-34.6939,-58.46
Presidente Avellaneda Airport,-29.1061,-59.6569
Ayacucho Airport,-37.1639,-58.4719
Ayres De Pilar Heliport,-34.4375,-58.7983
Azcarate Irastorza Heliport,-35.1994,-63.6008
B&B Servicios Agropecuarios Airport,-32.1147,-61.6328
Bell Helicopter Hurst Heliport,32.8000984192,-97.1669998169
B. Churruca Heliport,-34.6407,-58.4094
Baradero Airport,-33.8217,-59.4925
Barrancas Airport,-36.7756004333,-69.8593978882
Basavilbaso Airport,-32.3611,-58.8808
Batan Airport,-38.0117,-57.6775
Belén De Escobar Airport,-34.2986,-58.7989
Bellamar Airport,-38.3858,-58.1336
Benavidez Airport,-34.388054,-58.663887
Blondi Airport,-34.6133346558,-61.0230560303
Gran Ancona Airport,-33.4383,-61.3017
Buzz Field,33.9291992188,-100.8420028687
Bonetti Airport,-27.6041660309,-55.8638877869
Pablo Sierra Aeroaplicaciones Airport,-30.9294,-62.0506
Cabaña San Isidro Labrador Heliport,-34.3783,-58.7883
Cabañas Airport,-32.9775,-58.5222
Cabildo Airport,-38.4986000061,-61.8843994141
Ituzaingo / Transener S.A. Heliport,-27.5601,-56.6568
Cabo Vírgenes Heliport,-52.3278,-68.4092
Caleufu Airport,-40.393901825,-70.9633026123
Campo De Vuelo Heliport,-31.3689,-64.2636
Canals Airport,-33.5622,-62.8692
Hilltop Lakes Airport,31.0809993744,-96.2152023315
Cañada De Gomez Airport,-32.8086,-61.365
Cañada Rosquin Airport,-32.0994,-61.5839
Cañuelas Airport,-35.1119,-58.7261
Capitan Sarmiento Airport,-34.1639,-59.7311
Vedia Aeroclub,-34.481700000000004,-61.4903
Carhue Airport,-37.1942,-62.7814
Carlos Casares Airport,-35.6328,-61.3842
Las Ensenadas Airport,-31.4552993774,-64.5263977051
Carlos Tejedor Airport,-35.4256,-62.4697
Carmen De Areco Airport,-34.4175,-59.8719
Santa Maria Ranch Airport,27.4337997437,-99.1858978271
Casa De Gobierno Heliport,-31.4306,-64.1842
Casilda Airport,-33.0617,-61.21
Castelli Airport,-36.1100006104,-57.861946106
Castelli Airport,-25.9308338165,-60.6280555725
Centinela Heliport,-34.5822,-58.3744
Central Nuclear Heliport,-32.2294,-64.44
Centro Cívico Grand Bourg Heliport,-24.7806,-65.4514
Cereales Anahi Ruca Airport,-35.6736106873,-63.7180557251
Cerro Chapelco Heliport,-40.1981,-71.3211
Chacabuco Airport,-34.6069,-60.4097
Bierly(Personal Use) Airport,40.9305992126,-77.738899231
Gorman Airport,32.2042999268,-98.6656036377
Chacharramendi Airport,-37.3405990601,-65.646697998
Chajari Airport,-30.7542,-58.0
Chañar Ladeado Airport,-33.3333,-62.0333
Chascomus Airport,-35.5428,-58.0519
Chivilcoy Airport,-34.9639,-60.0333
Cholila Airport,-42.484722,-71.460556
Cinco Saltos Airport,-38.8016662598,-68.0372238159
Citefa Heliport,-34.5575,-58.5056
Ciudad Universitaria Heliport,-31.4406,-64.1894
Club Nautico San Isidro Heliport,-34.4614,-58.5003
LBJ Ranch Airport,30.2518005371,-98.6224975586
Colon Airport,-33.9231,-61.0461
Colon Airport,-32.2614,-58.1556
Complejo Llao Llao Heliport,-41.0544,-71.5339
Concepcion Del Uruguay Airport,-32.4519,-58.3058
Concordia Aeroclub Airport,-31.3042,-58.0153
Confluencia Airport,-36.7714004517,-69.5385971069
Coronel Dorrego Airport,-38.7411,-61.2561
Coronel Pringles Airport,-38.0066680908,-61.331943512
Coronel Vidal Airport,-37.4689,-57.7669
Corral De Bustos Airport,-33.2811,-62.1514
Texas World Speedway Helistop Nr 1 Heliport,30.5405006409,-96.2225036621
Santa María Airport,-31.2861003876,-64.4552993774
Cruz Alta Airport,-33.0078,-61.8369
Curuzu Cuatia Aeroclub Airport,-29.7789,-58.0958
D.P.A.O. Heliport,-34.9597,-57.8928
Fumigaciones Airport,-36.5914,-61.7753
Darregueira Airport,-37.7127990723,-63.1618995667
Darsena Sur Heliport,-34.6278,-58.3515
Dean Funes Airport,-30.3791999817,-64.379699707
Diamante Airport,-32.0161,-60.5825
Dines ( Dr. E. Escudero) Heliport,-34.5726,-58.4005
Texas World Speedway Helistop Nr 2 Heliport,30.5396003723,-96.2260971069
Agrocelta Servicios Aereos Airport,-33.8867,-60.8628
Saavedra Airport,-37.750242,-62.33425
Ecodyma S.C.A. Heliport,-34.9408,-57.9919
Eduardo Castex Airport,-35.8805541992,-64.2738876343
El Alamito Airport,-37.2736129761,-70.3897247314
Establecimiento El Araza Airport,-36.7756,-57.6414
El Capricho Heliport,-34.2325,-59.3158
El Corcovado Airport,-43.5335998535,-71.484703064
El Gaucho Airport,-32.6294,-61.5444
El Manantial Airport,-35.1943,-58.3594
R & S Buzzard Airport,35.676700592,-86.896697998
El Pajaro Airport,-34.8237,-58.3169
El Pampero Airport,-36.5928001404,-64.1866989136
El Trebol Airport,-32.2153,-61.7161
Elizalde Airport,-34.9747,-57.9614
Esperanza Airport,-31.4736,-60.8447
Esquina Airport,-30.0489,-59.5353
Estancia Don Roberto Airport,-34.0013999939,-65.366897583
Estancia Haychol Heliport,-38.6481,-70.6775
Estancia La Candelaria Heliport,-40.0442,-71.3664
Estancia La Chacota Heliport,-35.9133,-62.6417
Tims Ford Seaplane Base,35.2223014832,-86.2200012207
Estancia La Choza Airport,-30.5389,-58.2928
Estancia La Laurita Airport,-44.7761116028,-70.1963882446
Estancia Llamuco Airport,-38.799446106,-70.4347229004
Estancia Los Cardos Airport,-37.7356,-58.0342
Estancia Nueva Lubecka Airport,-44.4419441223,-70.4422225952
Estancia Palitue Heliport,-39.8528,-71.0464
Estancia San Juan Airport,-29.6028,-58.0281
Estancia San Ramón Airport,-50.303495,-69.926057
Estancia Santa Ana Heliport,-51.6839,-71.9689
Estancia Santa Isabel Heliport,-39.8847,-70.5136
Village Airport,35.6558990479,-84.1855010986
Estindher Airport,-33.0931015015,-64.4291992188
Ezpeleta Airport,-34.7464,-58.2033
Finca Las Costas Heliport,-24.7703,-65.4956
Firmat Aeroclub Airport,-33.4289,-61.5108
Formosa Aeroclub Airport,-26.3014,-58.2983
Fortín De Gainza Airport,-34.5494,-63.1225
Fuerza Aérea(Edificio Cóndor) Heliport,-34.5858,-58.3681
Fumigaciones Stadler Airport,-32.5786,-60.9119
Galvez Airport,-32.0322,-61.1758
General Alvear Aeroclub Airport,-34.9730987549,-67.7236022949
Park West Heliport,35.9175987244,-84.1001968384
General Belgrano Airport,-35.7519,-58.4633
General Deheza Airport,-32.745300293,-63.7957992554
General La Madrid Airport,-37.2271995544,-61.2792015076
General Las Heras,-34.9206,-58.9164
General Levalle Airport,-34.0038871765,-63.9308319092
General Madariaga Airport,-37.0392,-57.1372
General Pìnedo Airport,-27.3394,-61.2744
General Pinto Airport,-34.7861,-61.9142
General Rodriguez Airport,-34.497234,-59.037457
Los Toldos Airport,-34.9744,-61.0206
Physicians Medical Regional Center Heliport,35.991209,-83.927278
Gobernador Crespo Aeroclub Airport,-30.3878,-60.3656
Gobernador Santillán Airport,-27.9013996124,-64.2497024536
Gomez Airport,-35.0956,-58.0853
Gonzalez Chaves Airport,-38.0293998718,-60.136100769
Goya Aeroclub,-29.1678,-59.2464
Guadalupe Airport,-31.584,-60.668
Gualeguay Airport,-33.1036109924,-59.3747215271
Agro Aereo Gualeguay Airport,-33.0386,-59.4383
Helicenter Heliport,-34.4975,-58.6069
Heliplataforma Am I Heliport,-52.5192,-68.3858
Mc Donald Airport,35.867401123,-86.4978027344
Heliplataforma Carina Heliport,-52.7572,-67.2194
Heliplataforma/Am-2 Heliport,-52.5489,-68.3125
Heliplataforma/Am3 Heliport,-52.5228,-68.2808
Heliplataforma/Am5 Heliport,-52.5706,-68.2533
Heliplataforma/Rio Cullen-Hidra Norte Heliport,-52.8206,-68.2192
Heliwest Heliport,-34.6336,-58.7511
Henderson Airport,-36.3147010803,-61.7477989197
Hospital De Milagro Heliport,-24.7731,-65.4156
Hospital Materno Infantil San Roque Heliport,-31.73,-60.5217
Hospital Municipal Heliport,-34.4489,-59.4494
Nort's Resort Airport,41.5959014893,-76.0296020508
Riner Farm Airport,36.1833992004,-84.0990982056
Hospital Nac. De Pediatría J. Garraham Heliport,-34.6308,-58.3936
Huanguelen Airport,-37.0330543518,-61.9341659546
Huinca Renanco Airport,-34.8203010559,-64.3731002808
Ingeniero Luiggi Airport,-35.3549995422,-64.4758300781
Agroservicio Doña Teresa Airport,-28.8494,-62.2625
Establecimiento La Susana,-34.909168,-59.348888
Intendente Alvear Airport,-35.2592,-63.5328
Intendente Alvear Heliport,-35.2494,-63.5342
Fumigaciones Herbinsec Airport,-35.138611,-62.705278
Isla Santa Mónica Heliport,-34.4147,-58.5072
Horne Properties Heliport,35.9235992432,-84.0911026001
Don Hector Biondi Airport,-33.2464,-62.4167
Italaviation Airport,-29.1608,-59.1814
Jacinto Arauz Airport,-38.0661010742,-63.4282989502
Jardin De América Airport,-27.0324993134,-55.1980552673
Jesús Maria Airport,-30.9881000519,-64.0768966675
Agropecuaria Rio Juramento Airport,-25.1867008209,-64.0828018188
Tres Lomas Airport,-36.4439,-62.8792
Juan Carlos Bagur Airport,-32.4186,-59.8158
Juan Y Luci Heliport,-32.6922,-64.7206
Juarez Celman Airport,-31.2113895416,-64.1613922119
Erlanger Medical Center Heliport,35.0491981506,-85.2904968262
La Angelita Airport,-30.8522,-58.7067
Trenque Lauquen Airport,-36.0158,-62.6939
La Caida Airport,-34.8625,-58.3447
La Caldera Heliport,-36.6669,-56.6789
La Carolina Heliport,-31.3525,-64.2828
La Consulta Airport,-33.7308349609,-69.1738891602
La Fantasia,-34.7286,-59.109402
La Laja Airport,-31.3513889313,-68.4730529785
Quebracho Herrado Airport,-34.1553,-59.8739
La Madrugada Heliport,-34.2382,-59.1915
East Tennessee Children's Hospital Heliport,35.956199646,-83.9382019043
La Mezquita Airport,-31.400800705,-64.3003005981
La Milagrosa Heliport,-32.4828,-58.2506
La Nueva Airport,-34.9464,-61.3042
La Paz Aeroclub Airport,-30.7442,-59.5683
La Pelada Airport,-30.9556,-60.8858
La Siesta Airport,-33.6939,-62.0625
La Superba Heliport,-34.5008,-59.015
Laborde Airport,-33.1567,-62.8906
Lago Buenos Aires Airport,-46.5764007568,-70.948600769
Lago Escondido Heliport,-41.7033,-71.6075
Flower Mound Airport,33.0229,-97.122498
Lago La Esperanza Airport,-42.217499,-71.805003
Lago Nahuel Huapi Airport,-41.0971984863,-71.1778030396
Laguna Aeroclub Airport,-34.4088897705,-59.4583320618
Laguna De Gomez Airport,-34.6539,-61.01
Laprida Airport,-37.518901825,-60.7769012451
Las Araucarias Heliport,-34.3067,-59.1703
Las Chacritas Heliport,-34.405,-58.8631
Las Cortaderas Airport,-38.3547,-58.1089
Las Marias Airport,-28.1,-56.05
Las Ovejas Airport,-36.999699,-70.741897
Dooley Airport,33.0987014771,-97.2724990845
Las Rosas Airport,-32.4922,-61.5806
Las Varillas Airport,-31.8914,-62.7047
Lanzillota Airport,-32.7214012146,-68.6342010498
Legat S.A. Heliport,-34.3168,-58.8166
Leones Airport,-32.6368,-62.3148
Luján Airport,-34.5514,-59.0783
Lincoln Airport,-34.8911,-61.5306
El Mirador,-34.538887,-59.585278
Loberia Airport,-38.1906,-58.7864
Nika Airport,-38.1478,-58.7542
Ultralight International Ultralightport,32.9486999512,-97.3289031982
Lobos Airport,-35.2108,-59.1367
Los Cardos Airport,-32.2719,-61.6622
Los Fresnos Heliport,-34.2806,-59.12
Los Perales Airport,-46.1907997131,-69.2802963257
Los Tucanes Airport,-27.0358333588,-65.1566696167
Macachin Airport,-37.1110992432,-63.5499992371
Madero Heliport,-34.6217,-58.3447
Maipu Airport,-36.8903,-57.8503
Manuel Afonso Heliport,-34.815,-58.1953
Marcos Paz,-34.7975,-58.8969
Houston Heliport,29.8173999786,-95.6632995605
Martín Fierro Airport,-33.9402999878,-64.3696975708
Match Point Heliport,-34.5161,-59.1339
Meliquina Airport,-40.3353004456,-71.3392028809
Memorial Heliport,-34.4433,-58.8381
Mercedes Airport,-34.6397,-59.4556
Azcarate Irastorza Airport,-35.1994,-63.6008
Metán Airport,-25.5144004822,-64.9655990601
Mina Clavero Airport,-31.7331008911,-64.9856033325
Miraflores Country Club Heliport,-34.4461,-58.7342
Monte Maiz Airport,-33.2103,-62.6297
Ullrich Airport,30.0918998718,-96.7949981689
Montecarlo Airport,-26.5438995361,-54.7238998413
Moromar Airport,-38.4164,-58.3839
Morrison Heliport,-32.0,-62.0
Morteros Airport,-30.6778,-62.0267
Navarro Airport,-35.0236,-59.2858
Nogoya Airport,-32.4025,-59.7461
Norberto Cordeiro Heliport,-31.4142,-64.4969
Oficial Subinspector Gustavo Soarez De Souza Heliport,-34.7236,-58.515
Oliva Airport,-32.060798645,-63.5469017029
Oreste Berta Heliport,-31.6269,-64.3922
Lake Bay Gall Airport,30.4419002533,-95.1863021851
P.N.A. Of. Ppal. Ballestra Heliport,-34.5772,-58.3838
Palitue Airport,-39.8163871765,-71.0294418335
Parana Aeroclub Airport,-31.7578,-60.3733
Parana Club De Planeadores Airport,-31.7314,-60.22
Parque Hermoso Airport,-38.0287,-57.6393
Pedro Luro Airport,-39.4561,-62.6747
Pellegrini Airport,-36.2828,-63.1342
LAD 2198 Juan Jose Angelini,-34.426945,-59.480278
Pilcaniyeu Airport,-41.1266670227,-70.7138900757
Pinamar Airport,-37.0911,-56.9783
Grass Patch Airport,28.6455001831,-82.21900177
York Airport,35.0321006775,-81.2527999878
Harris County Courthouse Heliport,29.7161006927,-95.4768981934
Planta Cruz Del Sur Heliport,-53.3228,-68.2658
Poblet Airport,-35.0881,-57.9492
Policía Provincia De Córdoba Heliport,-31.3994,-64.1833
Policlinico San Martin Heliport,-34.9167,-57.9167
Polisur S.A. Heliport,-38.7742,-62.2939
Posadas Aeroclub Airport,-27.4174995422,-55.9397239685
Presidencia De La Nación Heliport,-34.6064,-58.3683
Puán Airport,-37.5393981934,-62.7341995239
Pueblo Esther Airport,-33.0817,-60.5647
Terminal 6 Airport,-32.6417,-60.7539
Flying U Airport,32.8334999084,-98.1252975464
Pulmari Airport,-39.1005554199,-70.9988861084
Punta Alta Airport,-38.8342,-62.0869
Raies Heliport,-31.3461,-64.2081
Rancho De Montaña Heliport,-40.1525,-71.2856
La Igualdad Airport,-35.5133,-58.3531
Rawson Airport,-43.2944,-65.0644
Realicó Airport,-35.0592002869,-64.2110977173
Nueva Valencia Airport,-27.5864,-58.8203
Don Jose Airport,-32.8275,-60.7817
Rio Chico Airport,-51.6686,-69.2603
Flying 'K' Ranch Ultralightport,26.1504001617,-97.8835983276
Estancia Rio Ewan Heliport,-54.233548,-67.213246
Rivadavia Airport,-33.2272224426,-68.4741668701
Rojas Airport,-34.215,-60.6725
Rosario De La Frontera Airport,-25.8280563354,-64.9680557251
Rosario Del Tala Airport,-32.3289,-59.1906
Rufino Airport,-34.2831,-62.6719
Salliqueló Airport,-36.756401062,-62.9444007874
Salto Airport,-34.3069,-60.2858
San Benito Airport,-31.8086,-60.4517
San Cayetano Heliport,-38.3338890076,-59.630279541
Jim Roach Field,30.015499,-97.737197
San Cristobal Airport,-30.2642,-61.2203
San Francisco Airport,-31.4142,-62.1336
San Isidro Labrador Heliport,-35.0814,-63.0822
San Joaquín Heliport,-34.3344,-59.7139
San Jorge Airport,-31.8836,-61.8442
San Justo Airport,-30.7642,-60.5653
San Martin Airport,-33.0625,-68.5083007812
Bahía Agradable Airport,-35.4594,-58.7636
Bahía Dorada Airport,-41.8428,-65.0822
San Vicente Airport,-26.9533004761,-54.4878005981
Dynasty Heliport,14.9632997513,145.641998291
Sanatorio Guemes Heliport,-34.597,-58.4219
Santo Tome Airport,-28.5272216797,-56.1094436646
Sarthou S.A. Heliport,-34.3642,-58.5497
Saturnino Unzue Heliport,-35.4244,-60.1561
Scaro Airport,-24.4480552673,-65.1758346558
Villa de María de Río Seco Airport,-29.9,-63.683
Sol De Agosto Heliport,-34.5331,-58.9714
Stroeder Airport,-40.2106,-62.6175
Suboficial Auxiliar Miguel A. Cardone Airport,-33.9617,-61.6325
Sunchales Aeroclub Airport,-30.9575,-61.5283
Nassau Bay Airport,32.4196014404,-97.7127990723
Swiss Medical Heliport,-34.580799999999996,-58.4294
Talitas Heliport,-32.5481,-58.2406
Estancia Tecka Airport,-43.6122207642,-71.0219421387
Tecnocopter S.A. Heliport,-34.4922,-58.6061
Terminal Y.P.F. Heliport,-34.7322,-58.5589
Tilisarao Airport,-32.75,-65.2822036743
Timen S.A. Heliport,-34.4964,-58.6078
Tolosa Airport,-34.8747,-57.9608
Tornquist Airport,-38.0956001282,-62.2503013611
Tostado Airport,-29.2358,-61.7886
Pecan Plantation Airport,32.3540000916,-97.676399231
Transener S.A. Heliport,-34.175,-58.9983
Transener S.A. Heliport,-34.9136,-58.7222
Transener S.A. Heliport,-32.3694,-66.0631
Recreo / Transener S.A. Heliport,-29.2628,-65.0582
Transener S.A. Heliport,-38.1472,-65.8228
Transener S.A. Heliport,-33.0989,-68.5819
Transener S.A. Heliport,-40.1622,-70.3917
Transener S.A. Heliport,-39.5675,-65.6886
Transener S.A. Heliport,-29.4606,-59.7636
Transener S.A. Heliport,-26.9936,-65.1636
Heliport-Facility 5a Heliport,32.7625999451,-97.0586013794
Almafuerte / Transener S.A. Heliport,-32.203,-64.315
Montecristo / Transener S.A. Heliport,-31.3392,-63.9138
Chevron Texaco Airport,-37.365002,-69.300278
Horco Molle Aeroclub Airport,-26.7961006165,-65.3091964722
Unidad Penitenciaria N° 30 Heliport,-36.0444,-60.0167
Urdinarrain Airport,-32.6964,-58.8992
Veinticinco De Mayo Airport,-35.4464,-60.0886
Vera Airport,-29.4681,-60.2261
Veronica Airport,-35.4,-57.3667
Victoria Airport,-32.5844,-60.1847
Panola General Hospital Heliport,32.1663017273,-94.3460006714
Victorica Airport,-36.2374992371,-65.450553894
Villa Del Rosario Airport,-31.579313,-63.539184
Villa General Belgrano Airport,-31.9652996063,-64.5643997192
Villa Ocampo Airport,-28.4969,-59.3256
Villa Regina Airport,-39.073600769,-67.0800018311
Villa Rumipal Airport,-32.1850013733,-64.4882965088
Zarate Airport,-34.12,-59.0836
Belingueres Aviación Airport,-34.2778,-60.5044
Bocca Airport,-31.8711,-61.9511
Buena Esperanza Airport,-30.5306,-58.3972
Aerospatiale Helicopter Corp Heliport,32.7117004395,-97.0271987915
Buenos Aires Airport,-33.859722,-59.468887
Burdisso Airport,-32.2406,-61.7583
Carlos Saqui Airport,-31.6350002289,-63.8610992432
Carmen De Patagones Airport,-40.7781,-62.9803
Club De Planeadores Airport,-38.0153,-57.6536
Colonia Tirolesa Airport,-31.244722,-64.035278
Comandante Eduardo A. Olivero Airport,-37.3666687012,-58.9666671753
Concepción Airport,-27.345434,-65.617973
Coronel Brandsen Airport,-35.1828,-58.2839
Coronel Moldes Airport,-33.616669,-64.612503
Thirty Thirty Matlock Office Center Heliport,32.6941986084,-97.1157989502
Shiloh Airport,33.0239982605,-97.1196975708
Di Giuseppe Airport,-32.8908,-61.1239
Dinaluca S.A. Airport,-27.3828,-57.6442
EAA General Rodriguez,-34.6803,-59.0358
El Girasol Airport,-33.6661,-59.8339
El Gringo Airport,-27.3086,-61.2114
El Jagüel Airport,-31.7994,-59.0339
El Malagueño Airport,-31.6994,-59.4006
El Pilincho Airport,-30.3872,-57.9683
El Toto Airport,-31.650278,-64.368889
Establecimiento La Adelita Airport,-31.3925,-61.1431
Elm Creek Airpark,29.5051994324,-97.9969024658
Establecimiento La Florencia Airport,-33.0769,-61.3178
Estancia Caridad Airport,-43.72139,-71.24556
Estancia El Chañar Airport,-31.2887,-62.4189
Estancia La Leonor Airport,-26.1494,-59.6672
Estancia La Providencia Airport,-32.9411,-58.565
Estancia La Salvación Airport,-25.2767,-58.9375
Estancia Lucila Airport,-38.3086,-58.105
Estancia San Vicente Airport,-32.9989,-61.7781
Estancia Santa Romana Airport,-33.753334,-65.246391
Estancia Villa Corina Airport,-28.035,-56.0678
Lazy K Acres Airport,32.9500999451,-97.1502990723
Estancia Villa María,-34.643299999999996,-59.1272
F.A.T. Airport,-34.1767,-61.5069
Finca La Frontera Airport,-22.12351,-63.29055
Firmat Airport,-33.4661,-61.4842
Fumigaciones Campagnucci Airport,-33.3239,-60.6658
Fumigaciones Fredy Airport,-34.2361,-60.5819
Fumigaciones González Airport,-32.3589,-60.9797
General Belgrano Airport,-24.745834,-65.418892
General San Martin (La Pampa) Airport,-37.94972,-63.6175
Ginevro Airport,-31.864445,-62.844166
Jacobia Field,33.1804008484,-96.043296814
Gualeguay Aeroclub Airport,-33.0994,-59.4172
Guatraché Airport,-37.682800293,-63.5508003235
Haras La Pomme Airport,-34.2078,-59.3856
Haras Trelliris Airport,-35.3314,-60.5792
Hosteria San Huberto Airport,-39.7038879395,-71.1699981689
Iriberri Airport,-38.4769,-58.8056
Islas Del Ibicuy Airport,-33.75,-58.7
La Carlota Airport,-33.4500007629,-63.3499984741
La Chacra Airport,-34.8119,-62.522501
La Esmeralda Airport,-29.9939,-57.8378
Card Aerodrome,33.2500991821,-96.116897583
La Lucía Airport,-33.0119,-61.0608
La Madrugada Airport,-38.0036,-59.3489
La Mariela Airport,-35.7828,-61.9342
La Zulema Airport,-32.4897,-62.6714
Las Lilas Airport,-35.1328,-62.2175
Malabrigo Airport,-29.35,-59.9667
Match Point Airport,-34.5161,-59.1339
Montes De Oca Airport,-32.5811,-61.8408
Ñancu Airport,-35.6161,-63.7508
Pedro Ferrari Airport,-32.9278,-62.4336
Landmark US Forest Service Airport,44.6423988342,-115.532997131
Petrazzini Airport,-38.3478,-60.2761
Petruk Airport,-27.0878,-58.6694
Pettilep Airport,-33.005,-61.0194
Pettilep II Airport,-32.8039,-60.7989
Puerta De Avalos Airport,-24.314679,-65.247198
Pulverizaciones M.H. Airport,-27.4831,-61.6486
Saldungaray Airport,-38.2163887024,-61.750831604
San Cayetano Airport,-38.3339,-59.6303
San Gregorio Airport,-34.3169,-62.0192
San Ignacio Airport,-39.8474998474,-70.8638916016
Warm Springs Creek Airport,44.1421012878,-115.3140029907
San José De La Dormida Airport,-30.2775001526,-63.8574981689
Santo Tomás De La Sierra Airport,-38.2666664124,-61.8333320618
Savesa Airport,-33.7792,-61.9775
Sigfrido Rohr Aviagro S.R.L. Airport,-34.8306,-62.4678
Skare Airport,-34.3571833134,-60.1559829712
Termal Airport,-26.753611,-60.492222
Timboy Airport,-30.2236,-57.8444
Trevelin Airport,-43.08797,-71.47868
Casilda Fumigaciones Airport,-33.174722,-61.2
Yapeyú Airport,-29.44393,-56.823915
Copper Basin Airport,43.8017997742,-113.8310012817
Berrini Heliport,-31.4397,-64.3433
Campanopolis Heliport,-34.791746,-58.601936
Casa De Lata Heliport,-39.8153,-71.1681
Country Club San Diego Heliport,-34.6006,-58.8414
Dayry Partners Americas Manufacturing Argentina Sa Heliport,-32.44,-63.2289
Dr. Mariano Moreno Heliport,-34.5631,-58.7903
Estancia La Pascuala Heliport,-37.3936,-58.9661
Heliplataforma Barcaza Yagana Heliport,-52.5225,-68.2806
Heliplataforma Buque Skandi Patagonia Heliport,-52.0,-67.0
Heliplataforma Equipo Modular M-10 Heliport,-52.5489,-68.3119
Mahoney Creek US Forest Service Airport,44.7445983887,-114.92099762
Metalúrgico Heliport,-33.3617,-60.2511
Pachón Minera Heliport,-31.7597,-70.4128
Pernigotti Heliport,-27.7708,-64.2278
Policia De La Provincia De Mendoza Heliport,-32.8783,-68.8681
Roca Heliport,-32.06,-64.7794
S.A.N.A. Heliport,-27.5494,-55.3336
Austral S.A. Heliport,-52.7386,-68.5725
General Alvear Airport,-35.9783,-59.9061
San Patricio Airport,-34.0403,-59.6944
La Cura Malal Airport,-34.0536,-60.1369
Hollow Top Airport,43.3249015808,-113.5879974365
Cañuelas Gas SA Heliport,-35.0583,-58.7883
Colonia La Capilla Heliport,-34.9167,-58.2508
Miguel Colombise Heliport,-33.3617,-60.2511
Piero Vara Heliport,-34.4328,-58.9722
Rio Cullen II Heliplatform,-52.8364,-68.1789
La Argentina Airport,-35.996667,-62.705278
La Paz Airport,-33.467,-67.55
Colonia Sarmiento Airport,-45.582371,-68.999841
Agroaire Airport,-27.476346,-61.624434
Aeroclub de El Chaltén Alf. G.N.A. Walter Omar D Anna,-49.328889,-72.93
Smith Field,32.7375984192,-96.4280014038
May Airport,44.6101989746,-113.8960037231
Hipólito Yrigoyen Lago Posadas Airport,-47.565833,-71.74
Puerto Piramides Airport,-42.550804,-64.269397
Punta Delgada Field,-42.764154,-63.643799
Camerones Field,-44.76667,-65.71667
Caleta Valdés Field,-42.454874,-63.61908
Telsen,-42.383333,-66.95
Gan Gan Field,-42.521363,-68.287861
Gastre Field,-42.276165,-69.221892
Cushamen Field,-42.17195981,-70.666176
Las Plumas Filed,-43.729305,-67.284822
Lee Williams Memorial Airport,44.4616012573,-116.7580032349
Estancia Cullen South Airport,-52.9435,-68.4021
Sara Airport,-53.432,-68.167
Rio Chico Highway Strip,-53.642,-67.9486
Los Robles Airport,-54.069,-67.6536
Agroalvear S.R.L. Airport,-33.06833,-60.66694
Arias Airport,-33.664,-62.3751
Estancia La Alborada,-37.462706,-58.188557
Finca Cuchuy Airport,-23.04,-63.7211
Calchaqui Airport,-29.85167,-60.29194
Stiefel Airport,-31.99472,-61.60278
Mostly Harmless Heliport,37.9654006958,-77.7774963379
Fumagro Airport,-37.214729,-62.780581
Establecimiento La Maria Pilar Airport,-36.488606,-63.432958
Agroservicios Airport,-33.2723,-60.5707
Alfomso Mengo Airport,-32.02444,-64.27944
Lomas del Espinillo Airport,-32.08806,-64.16972
Ita Ibate Airport,-27.44833,-57.422241
Estancia San Rafael Airport,-25.04347,-58.5915
Bernardo's Airport,-32.2506,-61.6519
Salvita Airport,-23.2128,-64.0339
El Desafio,-23.2426,-63.323
Johnson Fox Field,37.2335014343,-79.5852966309
Finca La Hercilia Airport,-22.6147,-63.662759
Kalbermatter Airport,-27.26028,-61.47444
El Potrero,-32.97472,-58.25389
Plus Agroservicios Aereos S.R.L. Airport,-33.8136,-61.3357
Biondi Airport],-33.2232,-62.4046
Casajus,-33.3882,-63.3055
Don Emilio Airport,-26.73247,-64.88455
AeroSoluciones Airport,-24.74889,-64.235
Don Alberto Airport,-35.8696,-57.8768
Fumigaciones Ortega Airport,-35.2757,-61.5564
Riverwood Airport,37.7965011597,-79.7667007446
Campo San Jose Airport,-30.77778,-62.01472
Pulverizaciones Aerosur Airport,-38.576401,-58.796429
Finca Toloche Airport,-25.4346,-63.8578
Agro Aéreo La Noria,-33.85696,-60.70038
Servicios Aeronauticos,-37.523004,-62.452319
Estancia La Carolina Airport,-33.07558,-60.715
SAS Aeroaplicaciones Airport,-24.80667,-64.18111
Vale Airport,-37.06556,-69.39556
Aeroagereo,-35.13588,-61.99717
La Amalia,-35.10042,-62.01656
Hunt Airport,37.6987991333,-77.0952987671
BSG Airport,-34.24968,-62.67416
Abelenda Airport,-35.738533,-59.762010000000004
Vergnano Airport,-30.32012,-61.901650000000004
Aeroclub San Javier,-30.5559,-59.9907
Chialva S. H. Airport,-32.736945,-62.531378
Santa Clara de Saguier Airport,-31.35549,-61.82983
San Alberto Airport,-36.592071,-64.220437
Cóndor del Aire Airport,-33.46587,-60.62854
Fumigaciones Nando Airport,-29.77963,-62.03181
Establecimiento El 21 Airport,-26.8952,-62.30962
Worley Field,36.9500999451,-79.8795013428
Tío Pujio Airport,-32.29307,-63.40197
Santagiulian Airport,-38.40573,-60.29968
Estancia Los Lobles Airport,-36.552913,-63.766652
Estancia La Criolla Airport,-35.537034,-60.129512
Servicios Agroaereos Airport,-35.449205,-60.160708
Don Angel Airport,-33.93823,-64.40774
Beneficios S.R.L. Airport,-33.93759,-64.415095
Comequechen Airport,-33.93402,-64.415946
Santa Isabel Airport,-36.23682,-66.94624
Limay Mahuida Airport,-37.1201,-66.704
Coffman Field,37.6941443722,-77.6608943939
Nueva Galia Airport,-35.089382,-65.197724
RAIG S.A. Airport,-32.4382,-63.2893
Suarez Aviación Airport,-32.4272,-63.3024
Villa Valeria Airport,-34.35653,-64.90136
D.P. El Vapor Heliport,-34.83467,-58.38498
Centro Cívico Bicentenario Heliport,-31.42037,-64.173235
Superficie Heliport,-34.90046,-57.929486
C.A.P.E. Provincial Police Heliport,-29.4356,-66.8632
La Reserva Heliport,-34.27045,-58.90043
Cooperativa de Trabajos Portuarios Limitada Heliport,-32.71915,-60.72636
Mc Guire Va Medical Center Pad Heliport,37.4959983826,-77.4621963501
Edificio Tribunales Helipad,-27.7813,-64.265
Villa La Ñata Heliport,-34.37527,-58.65576
Coy Aike Airport,-51.162246,-69.487675
Estancia Elena Airport,-49.727768,-68.756606
Fortin Cabo Lugones Airport,-24.300451,-59.830954
Posta Cambio A Zalazar Airport,-24.214083,-60.201159
Colonel Alfonso Airport,-25.130442,-58.217977
San Hilario Airport,-25.86448,-58.672887
Santa Elena Airport,-30.976069,-59.776894
Augusto Leguizamon Airport,-34.818011,-62.477107
Flatrock Air Strip,37.5232009888,-77.8193969727
Dutto Airport,-28.870432,-62.241535
Malfato Airport,-35.1517,-60.5056
Cañada Quiroz Airport,-27.5497,-58.7175
Malatini Airport,-35.569123,-61.368224
Ottaviani Airport,-35.648137,-61.350425
Copetonas Airport,-38.743657,-60.553332
Don Moises Airport,-32.039622,-64.192827
Itati Airport,-27.305297,-58.313924
Las 2 A Airport,-34.811475,-60.51701
Daireaux Airport,-36.5828,-61.7842
Colonial Air Park,34.9958992004,-89.7305984497
Jayarz Airport,37.2858009338,-77.7911987305
Estancia Santa Elisa Airport,-29.304436,-56.881343
Hernando Airport,-32.337145,-63.685178
Antares Airport,-34.528223,-63.960879
Lanteri Airpiort,-28.86085,-59.673331
Agroalas S.R.L. Airport,-26.870159,-64.74663
Horizonte Aplicaciones Areas Airport,-32.521761,-61.550695
Samave Airport,-33.786401,-62.127806
El Recuerdo S.R.L. Airport,-33.10549,-63.192986
Rovere Airport,-26.783029,-60.487414
Estancia La Elba,-44.5728,-65.3706
Handy Strip,37.4473991394,-76.4537963867
Fumigaciones Herbinsec Airport,-35.1386,-61.9928
Parajon Airport,-34.576385,-61.005748
Bahía Laura Airport,-48.331097,-66.417847
Fitz Roy Airport,-47.021639,-67.241585
Tres Cerros Airport,-48.138678,-67.655065
Ministro Ramos Mexía Airport,-40.523752,-67.214651
Arroyo de la Ventana Airport,-41.669222,-66.097071
Dique Florentino Ameghino Airport,-43.674928,-66.493948
Arroyo Los Berros Airport,-41.438981,-66.090185
La Caldonia Airport,-32.1306,-61.8935
Brooklyn Airport,37.6888999939,-77.1014022827
El Ocho Airstrip,-31.799689,-59.703579
Timbo Airstrip,-31.8266,-59.0333
Puerto San Antonio Este Airstrip,-40.799532,-64.864185
Guardia Mitre Airstrip,-40.418091,-63.663347
La Sistina Airstrip,-36.974031,-62.436969
Anillaco Airport,-28.795111,-66.914675
El Sauzalito Airport,-24.443851,-61.68824
Ingeniero Juárez Airport,-23.904822,-61.820092
La Cruz Airport,-29.159962,-56.658639
Loma Alta Airport,-29.049088,-57.081729
Seattle Seaplanes Seaplane Base,47.6276016235,-122.3320007324
Itá Caabó Airport,-29.29287,-57.727213
Estancia El Cencerro Airport,-30.534775,-60.438022
Estancia El Pinocho,-32.564739,-58.51746
Estancia La Elisa Airport,-34.038888,-59.776944
Estancia Los Leones Airport,-31.170558,-60.718125
Estancia Trebolares Airport,-35.636734,-63.498798
Rincón de Luna Airport,-28.470238,-58.249234
Finca Porvenir 8 Airport,-24.994562,-64.341664
Cabaña Los Gatos Airport,-27.142412,-61.764272
Estancia Las Marias Airport,-32.470437,-66.082103
Floathaven Seaplane Base,48.7281990051,-122.3359985352
Unidad Regional II de Polcia Heliport,-32.99354,-60.674636
Estancia 13 de Abril Airport,-35.515511,-61.758924
Pinto Airport,-29.152266,-62.675025
Pichanal-Franzini Airport,-23.338946,-64.247126
Traill Southeast Airport,-31.922586,-61.692139
Los Juries Airport,-28.477432,-62.1226
El Cuadrado Airport,-28.285565,-61.764686
Baker Flying Service Airport,33.1085014343,-91.2500991821
Johnson County Regional Hospital Heliport,35.4448013306,-93.4449005127
Centerville Airstrip,35.1186981201,-93.2015991211
Streamline Heliport,47.9828987122,-122.0380020142
Gunem Field,36.261701,-94.248299
John Harris Field,35.2159004211,-93.304901123
Cantrell Farms Airport,35.2324981689,-92.3432998657
Ashley County Hospital Heliport,33.1417999268,-91.9335021973
Flying Machines Airstrip,36.3152999878,-93.6666030884
Bella Vista Field,36.413898468,-94.4389038086
Greenwalt Company Airport,34.8067016602,-91.6082992554
Ozark Aerodrome,36.28889847,-94.09030151
Mc Donald's Strip,35.3205986023,-92.018699646
Pearson Field,34.9861984253,-92.6334991455
Dwight Field,46.617099762,-122.8259963989
Burns Aerodrome,34.9833984375,-90.9151000977
Gerrard Airport,34.7714996338,-90.8404006958
Wesson-Davis Field,35.2128982544,-93.7520980835
Lawrence Memorial Heliport,36.0736999512,-90.96849823
St Edward Mercy Medical Center Heliport,35.3555984497,-94.3501968384
Tommy's Flying Service Inc Airport,34.3815002441,-91.9585037231
Cedar Creek Ranch Airport,35.1333999634,-93.4751968384
White River Medical Center Heliport,35.7681007385,-91.6345977783
Vilonia Airport,35.1186981201,-92.1893005371
Lollars Creek Farm Airport,35.938999176,-93.845703125
Curtis Airport,46.5904006958,-123.1050033569
Odom Field,34.939301,-92.024597
Uams Heliport,34.75002,-92.320135
Baptist Memorial Hospital-Blytheville Heliport,35.943536,-89.916378
C. Andrew Laird Heliport,33.613899231,-112.2730026245
Dardanelle Hospital Heliport,35.2209014893,-93.1527023315
Honey Hill Heliport,35.2333984375,-91.787399292
Pine Village Airport,34.9819984436,-92.4451980591
Henson Farm Airport,36.0867004395,-94.1052017212
Medi-Port Heliport,36.3334007263,-94.1334991455
St Michael Hospital Heliport,33.4272994995,-94.042098999
Air Columbia Heliport,45.682598114,-121.9000015259
Arkansas National Guard Emergency Access Heliport,35.2195014954,-93.179901123
Sparks Regional Medical Center Heliport,35.3769989014,-94.4201965332
Carroll General Hospital Heliport,36.3590011597,-93.5521011353
Ouachita County Medical Center Heliport,33.576499939,-92.8354034424
Brickey Private Airport,35.1001014709,-92.7835006714
Flying W Airport,33.5125999451,-94.0134963989
St Vincent Infirmary Heliport,34.7505989075,-92.3406982422
Penrose Airport,35.18895,-91.050131
Warner Brown Hospital Heliport,33.2135009766,-92.6679000854
Union Medical Center Heliport,33.2145996094,-92.6679000854
Hansen Heliport,47.4361991882,-120.2799987793
Veterans Administration Heliport,36.0792007446,-94.1591033936
Hess Strip,35.2667999268,-90.9834976196
Smith Heliport,36.2239990234,-93.5782012939
Hazen Heliport,34.7803993225,-91.5826034546
Five Rivers Medical Center Heliport,36.289249,-90.996319
Ralph Fulmer Field,34.9187011719,-91.9151000977
R.V. Stewart Field,34.7397994995,-92.0901031494
Amos Airport,35.61022,-91.436249
De Witt Hospital Heliport,34.278808,-91.338628
NEA Baptist Hospital Heliport,35.807603,-90.666472
St Joseph Hospital Heliport,32.7285003662,-97.3245010376
Ware Mountain Heliport,48.3792991638,-122.2880020142
Chicot Memorial Hospital Heliport,33.3053016663,-91.2891998291
Arkansas Children's Hospital Heliport,34.7426986694,-92.2937011719
Mc Gehee Desha County Hospital Heliport,33.6184005737,-91.3923034668
White River Airport,35.9211997986,-92.0050964355
St Anthony's Medical Center Heliport,35.1675987244,-92.7220993042
Pike County Hospital Heliport,34.0498008728,-93.68409729
SMC Regional Medical Center Heliport,35.700401,-89.975601
Fulton County Hospital Heliport,36.3830986023,-91.8102035522
Siloam Springs Memorial Hospital Heliport,36.1814994812,-94.5410995483
Bradley County Memorial Hospital Heliport,33.6104011536,-92.0593032837
Stevens Memorial Hospital Heliport,47.8036994934,-122.3339996338
Hospital Heliport,35.4676017761,-93.4190979004
Forrest City Medical Center Heliport,35.039778,-90.776972
Piggott Community Hospital Heliport,36.3898010254,-90.202003479
Cross Ridge County Hospital Heliport,35.220118,-90.785992
Burns Funeral Home Parking Lot Heliport,36.2326011658,-92.6882019043
Augusta Heliport,35.2887001038,-91.3584976196
Helena Hospital Heliport,34.5097999573,-90.6261978149
Unity Health White County Medical Center Heliport,35.233443,-91.729728
Flying G Ranch Airport,33.6931991577,-91.3796005249
North Arkansas Medical Center Heliport,36.2364997864,-93.1092987061
Shamrock Port Heliport,47.7769012451,-117.0839996338
Katheryn's Landing Airport,34.1623001099,-92.6037979126
Gillespie Strip,34.1711997986,-92.6959991455
Heard Airport,34.1762008667,-92.7009963989
Bobwhite Hill Ranch Airport,34.9664993286,-92.2993011475
Drew Memorial Hospital Heliport,33.620098114,-91.8259963989
Ano Heliport,35.3081016541,-93.2242965698
Sparks Medical Center Van Buren Heliport,35.434625,-94.339947
Poe's Airport,35.0547981262,-92.3539962769
Landers Loop Airport,35.400100708,-93.0660018921
Stephens Heliport,34.7364997864,-92.5087966919
Childrens Hospital Emergency Heliport,47.6640014648,-122.28099823
Circle S Farms Airport,36.2258987427,-94.0320968628
Unity Health Harris Medical Center Heliport,35.609774,-91.264466
Ark-Mo Airport,36.4855995178,-90.2804031372
Squirrel Run Airport,35.4854011536,-94.1382980347
Arkansas Methodist Hospital Heliport,36.0508995056,-90.4981994629
Chael Airport,35.2201004028,-92.4964981079
Johnson Field,35.2644996643,-91.1890029907
Aragip Airport,-9.8833333333,149.483333333
Asbury Park Neptune Air Terminal,40.2193055556,-74.0908333333
Tau Airport,-14.2292003632,-169.511001587
Naval Station Everett Heliport,47.986460601,-122.224295139
Public Safety Heliport,33.537128,-112.18158
Asirim Airport,-6.0097222222,150.368611111
Pöchlarn-Wörth Heliport,48.214737,15.255424
Scalaria Airchallenge Water Landing Area,47.7347054331,13.4438323975
Bad Tatzmannsdorf PVA Hospital Helipad,47.33072,16.22207
Güssing Hospital Helipad,47.04977,16.3217
Retzer Land Heliport,48.7545,15.9622
Namatanai Airport,-3.6695,152.438
Aitape Airport,-3.1436111111,142.346805556
Utai Airstrip,-3.386,141.5868
Aurora St Luke's Medical Center Heliport,42.988899231,-87.951499939
Hopetoun Airfield,-33.9085006714,120.1470031738
Dwellingup Airstrip,-32.6926994324,116.074996948
Tjukayirla Roadhouse Airstrip,-27.155199,124.584999
Langley Park Airstrip,-31.9612293243,115.867866516
Myrup fly in estate Airport,-33.7937011719,121.958000183
Harrismith Airport,-32.9418449402,117.865447998
Kulin Airport,-32.6721992493,118.168998718
Althorpe Lighthouse Airstrip,-35.3707008362,136.860992432
Pinjarra North Airstrip,-32.5803985596,115.885002136
Pinjarra Skydiving Airstrip,-32.6665196035,115.881745219
Mort's Landing Airport,45.5071983337,-92.1418991089
Wheeler Field,-32.7874909969,115.789482594
Lake Clifton Airstrip,-32.7909355164,115.670883179
Between Lakes Private Airstrip,-32.8499984741,115.6399993896
Abrolhos East Wallabi Island Airport,-28.43785,113.735583333
Bremer Bay Airport,-34.3805618286,119.331947327
Middlebrook Station Scone Airstrip,-31.9711685181,150.811477661
Lily Dutch Windmill Airstrip,-34.2250022888,118.216148376
Preston Field - Blair Howe,-33.0187988281,115.700996399
Avoca Airport,-41.7817001343,147.7194061279
Kukerin,-33.1749000549,118.0849990845
Doering Farms Airfield,43.2014007568,-88.3333969116
Karijini National Park,-22.4871006012,118.4680023193
Cardabia Station Airstrip,-23.1060237885,113.805229187
Woodbury Airfield,-42.1677780151,147.4458312988
Port Fairy,-38.3619651794,142.2642211914
Northcliffe Airstrips (needs confirmation),-34.6590003967,116.1520004272
Yuin Station,-27.9833335876,116.0333328247
Boobyalla Airfield,-40.8991661072,147.8647155762
Moonambel Airfield,-36.9716682434,143.2861175537
Stirling Range Retreat,-34.3124008179,118.1859970093
Frankland Valley Vineyard,-34.3476982117,116.952003479
Aurora Lakeland Medical Center Heliport,42.6617012024,-88.4968032837
Avon Valley NP Airstrip,-31.6055488586,116.261314392
Tumbarumba Airport,-35.7626038,147.886885
Tardun Christian Brothers airfield,-28.7087001801,115.8176498413
Royal Prince Alfred Hospital Helipad,-33.8893318176,151.1836853027
Royal North Shore Hospital Helipad,-33.8222503662,151.1896362305
New Norcia airstrip,-30.96663,116.21547
New Norcia North,-30.9210027433,116.23998642
Abrolhos North Island,-28.2998166667,113.5958
Abrolhos Island,-28.4754062982,113.689184189
Kilcoy Airfield,-26.9713888889,152.569722222
Snow Crest Ranch Airport,43.8293991089,-89.3526000977
Maitraya Resort Airstrip,-34.9874643375,118.055562973
Hutt River Airstrip,-28.0712229659,114.477367401
Chittering Airstrip,-31.5211908201,116.147289276
Trawalla Airport,-37.4387473644,143.458957672
Pomonal Airstrip,-37.230559,142.677165
Lake Eyre North,-28.4166666667,137.3
Yardie Homestead,-21.8840402588,114.006564617
Kulin Bush Races Strip,-32.6644444444,118.310833333
Kooringal Airstrip,-27.3458333333,153.425833333
Huntfield Airfield,-35.1725454513,138.493609428
Mims Farm Ultralightport,32.3875999451,-96.8775024414
Crash In International Airport,42.7933998108,-87.8906021118
[Duplicate] Baralaba,-24.19357,149.843166
Lake Omeo Dry Lake Ultralightport,-36.9617573795,147.672729492
Snowy Range Airfield,-37.3485734147,146.766046286
Delatite Airstrip,-37.145053,146.159431
Brooklyn Oval Helicopter Landing Site,-33.5473,151.215684
Brooklyn TMC - Olivers Garage Helipad,-33.5562,151.1936
Brooms Head Heliport,-29.6068,153.332
Cowal Gold Mine Helipad,-33.6553,147.40036
Blackwater Hospital Helipad,-23.57128,148.877856
Royal Brisbane Hospital Helipad Charlie,-27.44993,153.02759
Simandl Field/Private Airport,42.8736000061,-88.1578979492
Inverell Hospital Helipad,-29.771624,151.13098
Blackheath - NPWS Helipad,-33.628062,150.306706
Lismore - Mortimer Oval Helicopter Landing Site,-28.808343999999998,153.284455
Lismore Helibase,-28.801211,153.288242
Long Reef Helipad,-33.73922,151.31033
Seventeen Seventy Heliport,-24.1828,151.8826
Adelaide River Heliport,-13.2362,131.10796
Amity Heliport,-27.4031,153.44
Appin Colliery Helipad,-34.2098,150.7914
Baal Bone Colliery Helipad,-33.26958,150.05846
With Wings And A Halo Airport,44.1335983276,-88.4992980957
Sherlock Ultralight Airfield,-35.3202777778,139.792522222
Braidwood Helicopter Landing Site,-35.448,149.8011
Warroora Station Airstrip,-23.47487,113.79925
Longford Heliport,-38.21962,147.16922
Horse Hair Plain Aerodrome,-37.0331,147.3055
West Cliff Colliery Helipad,-34.234073,150.829822
Toonumbar Dam Helipad,-28.61835,152.79353
Tucabia Oval Helicopter Landing Site,-29.66,153.1056
Urbenville Helipad,-28.46907,152.55133
Wanda Beach Helipad,-34.040487,151.1635
Oconomowoc Airport,43.1389007568,-88.4722976685
Lady Elliot Island Airstrip,-24.1129,152.7156
Clairview Heliport,-22.09246,149.51908
Clermont Hospital Helipad,-22.82707,147.63124
Brisbane Water Police Helipad,-27.40104,153.16415
Nambung Station Private Airstrip,-30.577798,115.225055
Carmila Town Helicopter Landing Site,-21.9092,149.417
Redland Hospital Helicopter Landing Site,-27.5346,153.2606
Couran Cove Resort Helipad,-27.823900000000002,153.4092
Crows Nest Helipad,-27.2649,152.0587
Dingo Airstrip,-23.655,149.338
Mc Manus Hoonch-Na-Shee-Kaw Airport,42.9314002991,-89.3386993408
Dululu Helicopter Landing Site,-23.8479,150.2625
Emerald Hospital Helicopter Landing Site,-23.5166,148.1539
Orchid Beach Resort Helipad,-24.96,153.3154
Toby's Gap Airstrip,-25.5887,153.0646
Hook Island Helipad,-20.1574,148.9481
Hail Creek Mine Heliport,-21.4888,148.3585
Goomeri Oval Helicopter Landing Site,-26.1795,152.0658
Gold Coast Water Police Helicopter Landing Site,-27.97,153.427
Glenden Township Heliport,-21.3608,148.1153
Gladstone Hospital Helipad,-23.8499,151.24855
Rucilla's Roost Airport,48.137298584,-123.1129989624
Facing Island Farmers Cove Helicopter Landing Site,-23.7738,151.3269
Facing Island - Gatcomb Head Helipad,-23.8758,151.3718
Eurong Heliport,-25.505,153.1292
Boggabilla Fuel Depot Landing Site,-28.6089,150.352
Boggabilla Airstrip,-28.6172,150.3324
Valley View,-28.699218,114.911043
Midway,-32.672544,115.789526
Wheeler Drome,-32.786914,115.910386
Unknown Farm Strip,-33.094903,115.717181
Murgenella Airstrip,-11.5494,132.9142
Shangri-La Airport,46.7518997192,-120.6019973755
Olinda (DSE) Helibase,-37.8594,145.3766
Erase Me 26,0.6000000000000001,0.0
Overlander Airport,-26.407707,114.45385
Denman Farm Strip,-32.379816,150.695005
Swan Reach Airport,-34.556053,139.592156
SYD,0.0,0.0
MEL,0.0,0.0
LST,0.0,0.0
[[+27717069166]] How to Join the Illuminati and Become Rich in Ukraine Brunei Australia Ghana Egypt South Africa UK Ireland,45.00995,2.85
Wbl,0.0,0.0
Coopers Landing,46.127778,-119.015
YKCY,-26.971197,152.566855
Frank,0.0,0.0
Agnew Airport,-12.1456003189,142.1490020752
Alroy Downs Airport,-19.2908000946,136.078994751
[Duplicate] Bolwarra Airport,-17.388299942,144.169006348
[Duplicate] Bloomfield Airport,-15.8736000061,145.330001831
[Duplicate] Batavia Downs Airport,-12.6591997147,142.675003052
Baniyala Airport,-13.19810009,136.227005005
Coolibah Airport,-15.5482997894,130.9620056152
[Duplicate] Cape Flattery Airport,-14.9709997177,145.311004639
Olympia Heliport,46.9640007019,-122.891998291
Coorabie Airport,-31.8943996429,132.296005249
Carlton Hill Airport,-15.5018997192,128.533996582
Cresswell Downs Airport,-17.9479999542,135.9160003662
[Duplicate] Cattle Creek Airport,-17.607000351,131.548995972
Diamantina Lakes Airport,-23.7616996765,141.1450042725
[Duplicate] Erldunda Airport,-25.205799,133.253998
[Duplicate] Elkedra Airport,-21.172421,135.443657
[Duplicate] Heathlands Airport,-11.736900329600001,142.57699585
[Duplicate] Highbury Airport,-16.4244003296,143.145996094
Hayman Island Resort Seaplane Base,-20.0599994659,148.8809967041
Potts Field,42.7997016907,-88.0486984253
Helenvale Airport,-15.685799598700001,145.2149963379
Kimberley Downs Airport,-17.3978004456,124.3550033569
Kulgera Airport,-25.8428001404,133.2920074463
[Duplicate] Koolatah Airport,-15.8886003494,142.438995361
[Duplicate] Yeelirrie Airport,-27.2768993378,120.096000671
[Duplicate] Macdonald Downs Airport,-22.4440002441,135.199005127
[Duplicate] Mulga Park Airport,-25.8600006104,131.649993896
Miranda Downs Airport,-17.328899,141.886002
Camballin Airport,-18.1247005463,124.2720031738
[Duplicate] Noonkanbah Airport,-18.4946994781,124.851997375
Duckwater Airport,38.851600647,-115.6340026855
L-Z Blue Thunder Heliport,48.9533996582,-122.8180007935
Orchid Beach Airport,-24.959400177,153.3150024414
Peppimenarti Airport,-14.144200325,130.091003418
Rockhampton Downs Airport,-18.9533004761,135.2010040283
Sturt Creek Airport,-19.1664009094,128.1739959717
Shaw River Airport,-21.5102996826,119.3619995117
Tom Price Airport,-22.7460002899,117.869003296
Torwood Airport,-17.3633003235,143.75
[Duplicate] Warrawagine Airport,-20.8442001343,120.702003479
[Duplicate] Whitsunday Airstrip,-20.27611,148.755
Springvale Airport,-17.7868995667,127.6699981689
Enumclaw Community Hospital Heliport,47.2065010071,-121.9810028076
Aua Island Airport,-1.4605555556,143.064722222
Ambunti Airport,-4.2156666667,142.823166667
Agaun Airport,-9.930833,149.385667
Austin Robert Mueller Municipal,30.2987223546,-97.6997852325
Aumo Airport,-5.7311111111,148.445277778
Alowe Airport,-0.545,9.444
Awar Airport,-4.124,144.853
Alxa Left Banner Bayanhot Airport,38.748310000000004,105.58858
Kompiam Airport,-5.3816666667,143.924722222
Arou Airstrip,-5.4951,142.5137
Sheldon Heliport,47.2510986328,-116.8519973755
Bak Airstrip,-5.2685,142.097
Buka Airport,-5.4223198891,154.6730041504
Biaru Airport,-7.6693,146.7594
Begesin Airstrip,-5.3889,145.4472
Batri Airstrip,-6.5522,143.9441
Blackwara Airport,-2.618211,141.091971
Wowobo Airstrip,-7.3405000000000005,144.5477
Wuyabo Airstrip,-6.8378,145.8732
Chimbu Airport,-6.0242900848,144.970993042
Dobu Airstrip,-6.6305,144.6383
Wings For Christ Airport,48.430464,-119.486058
Munduku Airport,-4.6204,143.4516
Kondobol Airport,-8.5336,142.5049
Dinangat Airport,-6.1546,146.6772
Doini Airport,-10.7009,150.7218
Tsendiap Airstrip,-5.3599,144.4462
Dimisisi Airstrip,-8.6298,142.2162
Dusin Airport,-5.184135,144.411965
Daru Airport,-9.0867595673,143.207992554
Dewara Airstrip,-8.3802,142.4475
Sindeni Airstrip,-7.0077,145.7965
Freedom Air Ranch Airport,43.039722,-111.038056
Embessa Airport,-9.447,148.7628
Edwaki Airport,-3.883986,141.792234
Mengina Airstrip,-6.4836,144.986
Milei Airstrip,-9.0794,147.602
Membok Airstrip,-6.4744,141.019
Eliptamin Airport,-5.0412,141.6779
Eleme Airstrip,-4.8141,143.9103
Engati Airstrip,-6.9179,146.1053
Emo River Airstrip,-9.1234,148.0415
Erume Airport,-8.2538,146.9747
Dorsey Creek Ranch Airport,44.411111,-108.163333
Meselia Airport,-6.1364,149.1183
Eloaua Airstrip,-1.5601,149.6318
Mirsey Airstrip,-4.0621,142.6609
Feramin Airport,-5.208,141.6988
Foroko Airstrip,-5.3283000000000005,144.8944
Fogomaiu Airstrip,-6.5096,143.0794
Frieda River Airport,-4.610468,141.960138
Fas Airstrip,-3.1983,141.472
Fuma Airport,-6.3933,142.4408
Kwieftim Airstrip,-3.6005000000000003,141.7674
Parkland Hospital Nr 2 Heliport,32.8114013672,-96.8387985229
Goroka Airport,-6.0816898346,145.391998291
Gimi Airstrip,-6.6482,145.4003
Geigorobi Airstrip,-4.1055,143.3056
Guari Airport,-8.1286,146.8722
Garasa Airport,-7.980713,147.213461
Guhu Airstrip,-5.6957,146.1116
Gema Airstrip,-6.8032,145.7756
Gurney Airport,-10.3114995956,150.333999634
Gokto Airstrip,-4.9136,144.49
Gusap Airport,-6.053196,145.959047
Fort Duncan Medical Center Heliport,28.7120990753,-100.4570007324
Gawa Airstrip,-5.259,142.233
Girua Airport,-8.8045396805,148.309005737
Gasuke Airport,-6.1028,141.73930000000001
Guwasa Airport,-6.465838,145.083968
Guavi Airstrip,-6.87,142.7537
Haia Airport,-6.707421,144.997398
Habi Airport,-6.32,142.4893
Heiweni Airport,-7.4223,146.4276
Honinabi Airport,-16.2457,142.1771
Hewa Airstrip,-5.1914,142.9595
Midstream Freeport Heliport,28.9717006683,-95.2830963135
Kimbe Airport,-5.4621701241,150.4049987793
Hesalibi Airstrip,-6.6,142.3502
Habina Airstrip,-6.6671,146.0
Haivaro Airport,-6.9406,143.059
Hauna Airstrip,-4.2994,142.2305
Hotmin Airstrip,-4.5845,141.5742
Haewenai Airstrip,-5.7219,141.3205
Herowena Airstrip,-6.6229,145.1972
Huya Airstrip,-6.2734,142.7061
Ibil Airstrip,-4.6828,141.0316
Seven C's Ranch Airport,27.9969005585,-98.8822021484
Imane Airport,-6.7524,146.1072
Kungim Airport,-5.671,141.03
Busilmin Airstrip,-4.9166,141.1548
Imonda Airport,-3.328,141.1573
Iropena Airstrip,-5.0333,143.87084
Inaru Airstrip,-4.6316,142.8913
Isan Airstrip,-5.9781,146.61975
Iteri Airstrip,-4.2418,141.5234
Ialibu Airport,-6.2782,143.9944
Witu Airport,-4.689522,149.440112
La Sal Junction Airport,38.3083000183,-109.3960037231
74 Ranch Airport,28.6849002838,-98.3827972412
Yomneri Airstrip,-5.237,144.6007
Yongai Airport,-8.5289,147.4603
Losuia Airport,-8.5058202744,151.0809936523
Kopiago Airport,-5.3883,142.4977
Kiunga Airport,-6.1257100105,141.2819976807
Kanainj Airport,-5.2903,144.7072
Kikori Airport,-7.4243798256,144.2500762939
Kafle Airstrip,-3.75,142.59
Kerema Airport,-7.9636101723,145.770996094
Kubuna Airstrip,-8.6917,146.7566
Jaxon Landing Heliport,33.4500007629,-101.9390029907
Kar Kar Airport,-4.557,145.9404
Aropa Airport,-6.305417,155.728139
Kuri Airport,-7.135083,143.276111
Kavieng Airport,-2.5794000626,150.807998657
Londolovit Airport,-3.043610096,152.628997803
Kairiru Airstrip,-3.3687,143.5546
Lae Airfield,-6.731666,146.996368
Lab Lab Airport,-5.7204,148.0566
Lake Campbell Airstrip,-6.7486,142.6037
Lele Airstrip,-5.2192,151.3938
Bar 3 Ranch Airport,30.66270065,-97.62509918
Klauhau Airstrip,-4.1305,142.2495
Lowai Airport,-6.3344000000000005,146.6458
Leron Plains Airport,-6.3917,146.3434
Lagoon Airstrip,-8.8186,143.1317
Lese Airport,-8.2799,146.2765
Long Island Airport,-5.3604,147.0177
Slai Airstrip,-4.0322,143.1831
Yas Island Seaplane Base,24.467,54.6103
Manari Airport,-9.1908,147.6219
Morobe Airport,-7.74,147.59
Ohho Airport,30.2700004578,-98.1082992554
Madang Airport,-5.2070798874,145.789001465
Mount Hagen Kagamuga Airport,-5.826789856,144.296005249
Mok Airport,-5.730238,149.056583
Mougulu Airport,-6.2808589999999995,142.420775
Mendi Airport,-6.14774,143.656998
Momote Airport,-2.06189,147.423996
Moro Airport,-6.3633298874,143.238006592
Misima Island Airport,-10.6892004013,152.837997437
Marawaka Airport,-6.9736,145.8849
Smok Airstrip,-3.3158,141.2461
Methodist Mansfield Medical Center Heliport,32.5677986145,-97.0952987671
Nankina Airport,-5.837,146.4533
Negarbo(Negabo) Airport,-6.567778,144.703058
Manguna Airport,-5.577778,151.792333
Kasonombe Airport,-6.3819,146.9859
Nomane Airport,-6.32183,145.070667
Kantobo Airstrip,-6.7227,143.5636
Nambaiyufa Airport,-6.2412,145.2424
Nadzab Airport,-6.569803,146.725977
Kwomtari Airstrip,-3.598,141.3614
Obura Airstrip,-6.5507,145.9728
Diamond H Ranch Airport,28.4002990723,-99.5587005615
Konge Airport,-6.2239,147.2152
Okisai Airstrip,-4.7065,141.9006
Oksapmin Airport,-5.2261,142.2259
Komako Airport,-7.3984,145.8827
Komaio Airport,-7.2714,143.5952
Kosimbi Airstrip,-3.9522,143.1767
Kombaku Airstrip,-5.3817,144.6355
Koroba Airport,-5.6952,142.7441
Moi Airstrip,-4.1615,141.2478
Kora Airstrip,-6.4304,145.0931
Rodgers Roost Airport,29.2877998352,-96.3497009277
Somokopa Airstrip,-7.0838,142.514
Pangoa Airport,-7.0226,141.5605
Pangia Airport,-6.386,144.1084
Kapi Airstrip,-6.371,144.6839
Mapoda Airport,-7.979,143.1694
Pumani Airport,-9.7469,149.4766
Puri Airport,-6.4751611111,143.987222222
Panakawa Airport,-7.6720555556,143.124722222
Port Moresby Jacksons International Airport,-9.4433803558,147.2200012207
Simbari Airstrip,-6.9623,145.6448
John Fields Ranch Airport,30.5548992157,-100.533996582
Simogu Airstrip,-6.8008,145.7134
Sopu Airport,-8.3038,147.1659
Sialum Airport,-6.0908,147.5955
Tsumba Airstrip,-4.6581,144.6082
Sinow Airstrip,-3.9925,141.5537
Sumwari Airstrip,-4.7508,142.3686
Lakunai Airfield,-4.223,152.185
Rumginae Airport,-5.8972222222,141.271666667
Karimui Airport,-6.4921,144.823
Maralina Airstrip,-6.9015,146.3698
South Texas Project Heliport,28.7922000885,-96.0419006348
Maramuni Airport,-5.13,143.4829
Norambi Airstrip.,-6.9125,145.6731
Tiri Airstrip,-6.6815,144.1842
Kirinbit Airstrip,-4.2839,143.1512
May River Airstrip,-4.3615,141.785
Mount Boregoro Helicopter Landing  Site,-9.894400000000001,148.1069
Suabi Airport,-6.1044444444,142.278333333
Sirebi Airstrip,-7.2196,144.2352
Simberi Airport,-2.6622222222,151.997777778
Sila Airport,-9.0735555556,148.38925
Eds Heliport,33.0917015076,-96.6860961914
Sabah Airport,-5.5765,155.0489
Seltamin Airstrip,-5.4122,141.8252
Simbai Airport,-5.2786111111,144.544722222
Samberigi Airstrip,-6.7193000000000005,143.9338
Selbang Airport,-5.315,141.752
Sepik Plains Airport,-3.8821,143.6734
Sangera Airstrip,-3.9678,143.2763
Sturt Island Airport,-8.1525,142.268444444
Sauren Airport,-5.9701,148.8543
Masa Airport,-6.345,147.591
Pickles Airport,39.125,-77.9250030518
Southeastern Helicopters Heliport,26.1469993591,-97.1738967896
Serra Airstrip,-2.9739,141.9297
Samanzing Airstrip,-6.4513,147.0673
Tari Airport,-5.8449997902,142.947998047
Tabubil Airport,-5.2786102295,141.2259979248
Tapila Airstrip,-8.4188,142.9043
Teredau Airport,-7.3205,144.6384
Tapini Airport,-8.3566666667,146.989166667
Tokua Airport,-4.3404598236,152.380004883
Talbakul Airstrip,-6.3708,144.7167
Tamo Airstrip,-4.7246,144.1529
Lakeside Beach Airport,30.5009994507,-98.1470031738
Tekin Airport,-5.2436666667,142.165194444
Tep Tep Airport,-5.9553,146.5595
Tapen Airstrip,-5.8545,146.6371
Tsewi Airport,-7.0695,146.1272
Tarakbits Airport,-5.614,141.0421
Tawa Airport,-7.4463,146.1067
Tekadu Airport,-7.6808,146.5503
Aiyura Airport,-6.3380555556000004,145.904166667
Utai Airstrip,-3.386,141.5868
Umba Airport,-7.0214,145.966
Anacacho Ranch Airport,29.1919002533,-100.2750015259
Kais-Udave Helicopter landing site,-8.7819,147.2785
Uroubi Airport,-9.5162,148.5591
Brugam Airstrip,-3.6381,142.8379
Musula Airstrip,-6.8385,142.8983
Bunam Airstrip,-4.6564,144.2517
Omaura Airstrip,-6.3679,145.9902
Kumbwareta Airstrip,-5.5078,144.1171
Upiara Airport,-8.5411,142.6503
Suame Airstrip,-8.3684,142.5862
Bunguwat Airstrip,-6.005,146.7205
Dunbar Ranch Airport,29.0760993958,-100.375
Tuvau Airstrip,-6.6025,145.8372
Usarumpia Airstrip,-6.9858,145.8102
Uvol Airport,-6.0178,150.9557
Vailala Airstrip,-7.7677,145.4857
Tobou Airstrip,-6.4026,147.4223
Talasea Airport,-5.2726,150.0089
Torembi Airport,-4.0165,143.1329
Vanimo Airport,-2.6926,141.3028
Tonu Airport,-6.6552,155.4326
Woposali Airstrip,-6.6577,144.2974
French Field,32.134042,-95.339583
Wabo Airport,-6.9894444444,145.075111111
Wapenamanda Airport,-5.6433000565,143.8950042725
Wawoi Falls Airport,-6.9523,142.6557
Wewak International Airport,-3.5838301182,143.669006348
Nugwaia Airstrip,-3.8183,142.835
Wonenara Airport,-6.7968611111,145.891944444
Wakunai Airport,-5.8603000000000005,155.2223
Wasu Airport,-5.9617094492,147.19822526
Woitape Airport,-8.5458333333,147.2525
Wau Airport,-7.3455555556,146.718611111
Lambert Fechter Municipal Airport,43.1641998291,-95.4700012207
Warasai Airstrip,-4.012,142.51
Buluwo Airstrip,-3.6753,142.0151
Yeva Airport,-7.548,146.188
Sugu Airstrip,-6.3907,143.5565
Sim Airport,-7.75,146.9273
Sisamin Airstrip,-5.1363,142.284
Weam Airport,-8.6184,141.1381
Yebil Airstrip,-3.4625,141.9559
Arugam Bay SPB,6.86,81.8238888889
Yatoam Airstrip,-5.0949,142.3846
Lake Mills Municipal Airport,43.4165992737,-93.5084991455
Yalumet Airport,-6.09,147.0117
Yemin Airstrip,-3.967,142.2912
Yili Airstrip,-3.5322,142.1645
Yanungen Airstrip,-3.4574,142.54
Yimnalem Airstrip,-5.1441,144.5956
Yagrombok Airstrip,-3.585,142.6285
Yasuru Airport,-6.6015,146.1813
Mount Tauwa Airstrip,-6.7293,144.303
Mui Airstrip,-4.7912,144.3113
Yawa Airstrip,-4.1003,142.1351
Road Commission Nr 1 Airport,63.1082000732,-147.5319976807
Yawan Airstrip,-6.1339,146.8438
Zahn's Airport,40.71,-73.4
Sibilanga Airstrip,-3.4458,142.501
Wasum Airport,-6.0491,149.337
Sopise Airstrip,-6.7887,144.1593
Oum Airstrip,-4.2684,142.1273
Siawi Airstrip,-4.061,141.4197
Yilui Airstrip,-3.9292,142.2045
Zuebak Airstrip,-6.3088,146.5568
Zabrat Airport,40.4955422161,49.9768066406
Shannons Pond Seaplane Base,59.0589981079,-158.5769958496
Khachmas Airfield,41.4578767267,48.8303983212
Shaki Airport,41.1365526725,47.1595001221
Naftalan Airport,40.5159198356,46.8294811249
Tanrykulular Airport,40.7429001447,46.8570113182
Aghdas Airport,40.6634276083,47.5140988827
Göyçay Airport,40.6231834773,47.7628523111
Bygyr Airport,40.5290747125,47.8300738335
Mollakend Airport,40.1204185512,48.1457161903
Agdzhabedi Airport,40.0222906243,47.4493503571
Fizuli East Airport,39.5945777411,47.1961283684
Hunt Strip,61.5918998718,-149.6779937744
Aghdam Airport,39.9760019628,47.0001447201
Sital Chay Airport,40.8073129238,49.4314813614
Baku Lokbatan Airport,40.3499619803,49.6697258949
Sangachaly Air Base,40.1297707563,49.4549560547
Pirsagat Airport,39.8539990554,49.340018034
Kazı Magomed Airport,40.0309399667,48.9027643204
Karachala Airport,39.831790367,48.9667510986
Salyany Air Base,39.649550370200004,48.9915776253
Pushkino East Air Base,39.5160429899,48.6906337738
Kyzylagadzh Air Base,39.0061622679,48.8063120842
Willapa Harbor Heliport,46.6632003784,-123.81199646
North Jackson Hospital Heliport,34.9140014648,-85.7708969116
Morton Field Ultralight Flightpark,32.805801,-113.507004
Outback Ranch Airstrip,33.8477783203,-113.570274353
Gateway East KNXV TV Heliport,33.454172,-111.983735
Cliff Dwellers Lodge Airport,36.7344017029,-111.7529983521
Hillair Dirt Strip,33.919201,-113.190001
Lakeside Airpark,33.112499,-112.662003
Dateland Airfield,32.8172,-113.527
Phoenix Area Heliport,33.4427986145,-112.1490020752
Boswell Memorial Hospital Heliport,33.6035995483,-112.2819976807
Sergio Private Airport,34.799999,-114.112999
Huntsville Memorial Hospital Heliport,36.09400177,-93.742401123
Jsj Heliport,33.4472999573,-111.8470001221
KPNX-TV Studios Heliport,33.461201,-112.075996
183 Mile Heliport,36.1082992554,-113.2129974365
Schu Ranch Airport,33.016998291,-112.28099823
Ammon Airport,32.02470016,-109.9570007
Lava Falls Heliport,36.1916007996,-113.092002869
Northern Cochise Community Hospital Heliport,32.2723007202,-109.8339996338
Circle H Ranch Airport,31.502199173,-109.3909988403
Madison Aviation Heliport,35.9749984741,-112.1309967041
C & L Ranch Ultralightport,31.7378005981,-110.6259994507
Pierce Airport,33.3664016724,-112.6179962158
Westcor Home Office Heliport,33.5924987793,-111.9779968262
Four Pillars Airport,31.7458000183,-110.2480010986
Marcus J Lawrence Medical Center Heliport,34.7333984375,-112.0299987793
Flagstaff Mall Heliport,35.2235984802,-111.5830001831
Phoenix Baptist Hospital Heliport,33.5247993469,-112.1019973755
Goldfield Ranch Airport,33.599998,-111.605003
Evelyn Field,31.3691997528,-110.125
Big Springs Ranch Airport,34.9099998474,-112.533996582
Thunder Ridge Airpark,33.8214988708,-112.5729980469
Westridge Mall Heliport,33.4756011963,-112.2239990234
William E Poole Heliport,34.6022520024,-117.172451019
United Bank Plaza Heliport,33.4852981567,-112.0749969482
Serene Field,32.9967002869,-112.2720031738
Roesner Ranch Airport,33.8474998474,-112.5879974365
Knoell-Main Office Heliport,33.4258995056,-112.0299987793
Massey Farm Airport,34.691428,-114.097739
Grand Canyon West-2 Heliport,36.0480003357,-113.858001709
Grand Canyon West-1 Heliport,36.0261001587,-113.8280029297
Tucson Medical Center Heliport,32.251701355,-110.8789978027
Rittenhouse Army Heliport,33.2513999939,-111.5179977417
Turf Heliport,33.4631996155,-111.7289962769
Joe Gottlieb Field,35.368,-119.195
Sheepy Hollow Ranch Airfield,33.7874183655,-113.642417908
Abacus Tower Heliport,33.4833984375,-112.0699996948
Asi Heliport,33.4474983215,-111.9919967651
Hidden Valley Airport,33.0638999939,-112.1640014648
Mount Graham Regional Medical Center Heliport,32.821694,-109.736014
China Peak Observatory Airport,32.7291984558,-110.2959976196
H&H Ranch Airstrip,34.7663993835,-112.5490036011
Lapaz Regional Hospital Heliport,34.13669968,-114.2860031
Banner University Medical Center Helipad,33.464972,-112.057782
Walter Ranch Airport,32.895599,-112.253998
St Helena Hospital Heliport,38.5433333,-122.475
